,Fire Department Name,Fire Department Code,Address,City,State,Zip Code,County Code,County Name,Phone Number,Latitude,Longitude,Location 1
0,ALBANY FIRE DEPARTMENT,1001,26 BROAD STREET,ALBANY,NY,12202-0000,1,Albany,5184477879.0,42.662577,-73.75989799999999,"(42.662577, -73.759898)"
1,ALTAMONT FIRE DEPARTMENT,1002,115 MAIN STREET PO BOX 642,ALTAMONT,NY,12009,1,Albany,5188618171.0,42.702865,-74.02531,"(42.702865, -74.02531)"
2,BERNE FIRE DEPARTMENT,1003,CANADAY ROAD,BERNE,NY,12023,1,Albany,5188720470.0,42.612842,-74.070082,"(42.612842, -74.070082)"
3,BOGHT COMMUNITY FIRE DEPARTMENT,1004,1095 LOUDON ROAD,COHOES,NY,12047,1,Albany,5187850339.0,42.783571,-73.74396899999999,"(42.783571, -73.743969)"
4,COEYMANS FIRE DEPARTMENT,1005,67 CHURCH STREET,COEYMANS,NY,12045,1,Albany,5187562027.0,42.474106,-73.79883199999999,"(42.474106, -73.798832)"
5,COEYMANS HOLLOW FIRE DEPARTMENT,1006,1290 ROUTE 143,COEYMANS HOLLOW,NY,12046,1,Albany,5187566310.0,42.480340000000005,-73.92286,"(42.48034, -73.92286)"
6,COHOES FIRE DEPARTMENT,1007,97 MOHAWK STREET,COHOES,NY,12047,1,Albany,5182372125.0,42.774511,-73.700005,"(42.774511, -73.700005)"
7,COLONIE FIRE DEPARTMENT,1008,1631 CENTRAL AVENUE,ALBANY,NY,12205,1,Albany,5188699306.0,42.719291999999996,-73.83469699999999,"(42.719292, -73.834697)"
8,DELMAR FIRE DEPARTMENT,1009,145 ADAMS STREET,DELMAR,NY,12054,1,Albany,5184757310.0,42.621806,-73.83503,"(42.621806, -73.83503)"
9,ELSMERE FIRE DEPARTMENT,1010,15 WEST POPLAR DRIVE,DELMAR,NY,12054,1,Albany,5184399144.0,42.624501,-73.81962299999999,"(42.624501, -73.819623)"
10,FORT HUNTER FIRE DEPARTMENT,1011,3525 CARMAN ROAD,SCHENECTADY,NY,12303,1,Albany,5183552434.0,42.7403,-73.942101,"(42.7403, -73.942101)"
11,FULLER ROAD FIRE DEPARTMENT,1012,1342 CENTRAL AVENUE,ALBANY,NY,12205,1,Albany,5184894421.0,42.702595,-73.81580799999999,"(42.702595, -73.815808)"
12,GREEN ISLAND FIRE DEPARTMENT,1013,7  CLINTON STREET,GREEN ISLAND,NY,12183,1,Albany,5182731041.0,42.742022,-73.692784,"(42.742022, -73.692784)"
13,GUILDERLAND FIRE DEPARTMENT,1014,2303 WESTERN AVE,GUILDERLAND,NY,12084,1,Albany,5184565000.0,42.703916,-73.91060999999999,"(42.703916, -73.91061)"
14,GUILDERLAND CENTER FIRE DEPT,1015,30 SCHOOL ROAD,GUILDERLAND CENTER,NY,12085,1,Albany,5188618871.0,42.701834000000005,-73.966158,"(42.701834, -73.966158)"
15,KNOX FIRE DEPARTMENT,1016,2198 BERNE ALTAMONT ROAD,KNOX,NY,12107,1,Albany,5188720368.0,42.668944,-74.119396,"(42.668944, -74.119396)"
16,LATHAM FIRE DEPARTMENT,1017,226 OLD LOUDON ROAD,LATHAM,NY,12110,1,Albany,5187855060.0,42.748925,-73.758425,"(42.748925, -73.758425)"
17,MEDUSA FIRE DEPARTMENT,1018,458 CR 351,MEDUSA,NY,12120,1,Albany,5182396006.0,42.436845,-74.12705,"(42.436845, -74.12705)"
18,MAPLEWOOD FIRE DEPARTMENT,1019,61 COHOES ROAD,WATERVLIET,NY,12189,1,Albany,5182731200.0,42.746005,-73.700941,"(42.746005, -73.700941)"
19,MC KOWNVILLE FIRE DEPARTMENT,1020,1250 WESTERN AVENUE,ALBANY,NY,12203,1,Albany,5184894340.0,42.67876,-73.830528,"(42.67876, -73.830528)"
20,MENANDS FIRE DEPARTMENT,1021,250 BROADWAY,MENANDS,NY,12204,1,Albany,5184639494.0,42.68282,-73.73486,"(42.68282, -73.73486)"
21,MIDWAY FIRE DEPARTMENT,1022,1956 CENTRAL AVENUE,ALBANY,NY,12205,1,Albany,5184561993.0,42.739022999999996,-73.857362,"(42.739023, -73.857362)"
22,NEW SALEM FIRE DEPARTMENT,1023,694 NEW SALEM ROAD,VOORHEESVILLE,NY,12186,1,Albany,5187652244.0,42.625059,-73.968935,"(42.625059, -73.968935)"
23,NORTH BETHLEHEM FIRE DEPARTMENT,1024,589 RUSSELL ROAD,ALBANY,NY,12203,1,Albany,5184896556.0,42.664105,-73.84205,"(42.664105, -73.84205)"
24,ONESQUETHAW FIRE DEPARTMENT,1025,2178 TARRYTOWN RD PO BOX E,CLARKSVILLE,NY,12041,1,Albany,5184682823.0,42.57541,-73.96359,"(42.57541, -73.96359)"
25,RAVENA FIRE DEPARTMENT,1026,116 MAIN STREET PO BOX 207,RAVENA,NY,12143,1,Albany,5187562089.0,42.471694,-73.810532,"(42.471694, -73.810532)"
26,RENSSELAERVILLE FIRE DEPARTMENT,1027,21 RICE RD PO BOX 134,RENSSELAERVILLE,NY,12147,1,Albany,5187975269.0,42.518434,-74.138762,"(42.518434, -74.138762)"
27,SCHUYLER HEIGHTS FIRE DEPT,1028,900 FIRST STREET,WATERVLIET,NY,12189,1,Albany,5182717851.0,42.710658,-73.72010300000001,"(42.710658, -73.720103)"
28,SELKIRK FIRE DEPARTMENT,1029,126 MAPLE AVENUE,SELKIRK,NY,12158,1,Albany,5184360534.0,42.53155,-73.795146,"(42.53155, -73.795146)"
29,SHAKER RD-LOUDONVILLE FIRE DEPT,1030,550 ALBANY-SHAKER ROAD,LOUDONVILLE,NY,12211,1,Albany,5184581499.0,42.715127,-73.784522,"(42.715127, -73.784522)"
30,SLINGERLANDS FIRE DEPARTMENT,1031,PO BOX 99,SLINGERLANDS,NY,12159,1,Albany,5184394734.0,42.62985,-73.86216800000001,"(42.62985, -73.862168)"
31,STANFORD HEIGHTS FIRE DEPARTMENT,1032,2240 CENTRAL AVENUE,SCHENECTADY,NY,12304,1,Albany,5183467948.0,42.764326000000004,-73.8861,"(42.764326, -73.8861)"
32,TRI-VILLAGE FIRE DEPARTMENT,1033,3096 CO RTE 145 PO BOX 575,PRESTON HOLLOW,NY,12469,1,Albany,5182396780.0,42.446314,-74.20966899999999,"(42.446314, -74.209669)"
33,VERDOY FIRE DEPARTMENT,1034,988 TROY SCHENECTADY ROAD,LATHAM,NY,12110,1,Albany,5187857291.0,42.763506,-73.800801,"(42.763506, -73.800801)"
34,VOORHEESVILLE FIRE DEPARTMENT,1035,12 ALTAMONT RD PO BOX 525,VOORHEESVILLE,NY,12186,1,Albany,5187654048.0,42.650819,-73.93775600000001,"(42.650819, -73.937756)"
35,WATERVLIET FIRE DEPARTMENT,1036,FIRE HEADQRTRS 116 13TH ST,WATERVLIET,NY,12189,1,Albany,5182703826.0,42.723228000000006,-73.702914,"(42.723228, -73.702914)"
36,WEST ALBANY FIRE DEPARTMENT,1038,113 SAND CREEK ROAD,ALBANY,NY,12205,1,Albany,5184216624.0,42.692166,-73.785673,"(42.692166, -73.785673)"
37,WESTERLO FIRE DEPARTMENT,1039,591 ST RTE 143 PO BOX 87,WESTERLO,NY,12193,1,Albany,5187973321.0,42.51526,-74.046139,"(42.51526, -74.046139)"
38,WESTMERE FIRE DEPARTMENT,1040,1732 WESTERN AVENUE,ALBANY,NY,12203,1,Albany,5184566734.0,42.688815999999996,-73.861582,"(42.688816, -73.861582)"
39,A E  CRANDALL HOOK AND LADDER CO,2001,8 S MAIN ST BOX 582,ALFRED,NY,14802,2,Allegany,6075878880.0,42.254065000000004,-77.790323,"(42.254065, -77.790323)"
40,ALFRED STATION FIRE DEPARTMENT,2002,623 STATE RTE 244 BOX 282,ALFRED STATION,NY,14803,2,Allegany,6075879201.0,42.268636,-77.75986,"(42.268636, -77.75986)"
41,ALLENTOWN FIRE DEPARTMENT,2003,1966 CHURCH ST PO BOX 82,ALLENTOWN,NY,14707,2,Allegany,5855934020.0,42.12375,-77.94883,"(42.12375, -77.94883)"
42,ALMA FIRE DEPARTMENT,2004,5778 CNTY ROUTE 18 BOX 49,ALMA,NY,14708,2,Allegany,5855930044.0,42.012599,-78.060224,"(42.012599, -78.060224)"
43,ALMOND FIRE DEPARTMENT,2005,1 MARVIN LANE BOX 256,ALMOND,NY,14804,2,Allegany,6072765921.0,42.316386,-77.740698,"(42.316386, -77.740698)"
44,ANDOVER FIRE DEPARTMENT,2006,60 S MAIN ST PO BOX 714,ANDOVER,NY,14806,2,Allegany,6074788361.0,42.154809,-77.79527399999999,"(42.154809, -77.795274)"
45,ANGELICA FIRE DEPARTMENT,2007,85 MAIN ST PO BOX 154,ANGELICA,NY,14709,2,Allegany,5854667621.0,42.307251,-78.020337,"(42.307251, -78.020337)"
46,BELFAST FIRE DEPARTMENT,2008,11 MERTON AVENUE PO BOX 487,BELFAST,NY,14711,2,Allegany,5853652606.0,42.344075,-78.110895,"(42.344075, -78.110895)"
47,BELMONT FIRE DEPARTMENT,2009,80 SCHUYLER STREET,BELMONT,NY,14813,2,Allegany,5852685550.0,42.22457,-78.030511,"(42.22457, -78.030511)"
48,BOLIVAR FIRE DEPARTMENT,2010,460 MAIN ST  PO BOX 483,BOLIVAR,NY,14715,2,Allegany,5859281250.0,42.064374,-78.168037,"(42.064374, -78.168037)"
49,CANASERAGA FIRE DEPARTMENT,2011,10 MAIN ST BOX 322,CANASERAGA,NY,14822,2,Allegany,6075456221.0,42.439640000000004,-77.85099,"(42.43964, -77.85099)"
50,CENTERVILLE MEMORIAL FIRE DEPT,2013,8936 CNTY ROAD 3 BOX 16,CENTERVILLE,NY,14029,2,Allegany,5855678132.0,42.4802,-78.24897,"(42.4802, -78.24897)"
51,CLARKSVILLE FIRE DEPARTMENT,2014,8854 CNTY ROAD 40 BOX 132,WEST CLARKSVILLE,NY,14786,2,Allegany,5859683138.0,42.2186,-78.28209,"(42.2186, -78.28209)"
52,CUBA FIRE DEPARTMENT,2015,51 E MAIN ST PO BOX 84,CUBA,NY,14727,2,Allegany,5859682530.0,42.21782,-78.2883,"(42.21782, -78.2883)"
53,BROOKS FIRE DEPARTMENT,2016,20 S GENESEE ST BOX 53,FILLMORE,NY,14735,2,Allegany,5855678614.0,42.465164,-78.112337,"(42.465164, -78.112337)"
54,FRIENDSHIP FIRE DEPARTMENT,2017,3 DEPOT STREET PO BOX 503,FRIENDSHIP,NY,14739,2,Allegany,5859732371.0,42.208223,-78.133936,"(42.208223, -78.133936)"
55,HOUGHTON FIRE DEPARTMENT,2018,9750 STATE RT 19 PO BOX 96,HOUGHTON,NY,14744,2,Allegany,5855678229.0,42.424165,-78.15597199999999,"(42.424165, -78.155972)"
56,NEW HUDSON FIRE DEPARTMENT,2019,8597 STATE RTE 305 PO BOX 1,BLACK CREEK,NY,14714,2,Allegany,5859681566.0,42.275383000000005,-78.226176,"(42.275383, -78.226176)"
57,ORAMEL FIRE DEPARTMENT,2020,8415 STATE ROUTE 19,BELFAST,NY,14711,2,Allegany,5853652511.0,42.31418,-78.13784,"(42.31418, -78.13784)"
58,RICHBURG FIRE DEPARTMENT,2021,277 MAIN ST PO BOX 74,RICHBURG,NY,14774,2,Allegany,5859281800.0,42.08828,-78.15371999999999,"(42.08828, -78.15372)"
59,RUSHFORD FIRE DEPARTMENT,2022,BOX 223,RUSHFORD,NY,14777,2,Allegany,5854372522.0,42.389617,-78.246587,"(42.389617, -78.246587)"
60,SCIO FIRE DEPARTMENT,2023,4359 CNTY RD 10 PO BOX 231,SCIO,NY,14880,2,Allegany,5855932046.0,42.191917,-77.899663,"(42.191917, -77.899663)"
61,SHORT TRACT FIRE DEPARTMENT,2024,10355 CO RD 15 PO BOX 105,FILLMORE,NY,14735,2,Allegany,5855678075.0,42.438159999999996,-78.07038,"(42.43816, -78.07038)"
62,WELLSVILLE FIRE DEPARTMENT,2025,40 S MAIN ST PO BOX 1156,WELLSVILLE,NY,14895,2,Allegany,5855934980.0,42.11894,-77.943226,"(42.11894, -77.943226)"
63,WHITESVILLE FIRE DEPARTMENT,2026,496 MAIN ST PO BOX 256,WHITESVILLE,NY,14897,2,Allegany,6073563223.0,42.037822,-77.76708199999999,"(42.037822, -77.767082)"
64,WILLING FIRE DEPARTMENT,2027,1395 ST ROUTE 19 SOUTH,WELLSVILLE,NY,14895,2,Allegany,5855932385.0,42.055868,-77.915924,"(42.055868, -77.915924)"
65,WISCOY-ROSSBURG FIRE DEPARTMENT,2028,11490 CO RD 27 PO BOX 171,FILLMORE,NY,14735,2,Allegany,5855678989.0,42.499877000000005,-78.07623000000001,"(42.499877, -78.07623)"
66,BIRDSALL FIRE DEPARTMENT,2029,9040 CO RD 15B PO BOX 162,CANASERAGA,NY,14822,2,Allegany,5854663000.0,42.390335,-77.91577,"(42.390335, -77.91577)"
69,CHENANGO BRIDGE FIRE DEPARTMENT,4005,PO BOX 12,CHENANGO,NY,13745,4,Broome,6076485742.0,42.16892,-75.87468,"(42.16892, -75.87468)"
70,CHENANGO FORKS FIRE DEPARTMENT,4006,PO BOX 139,CHENANGO FORKS,NY,13746,4,Broome,6076484136.0,42.27234,-75.85153000000001,"(42.27234, -75.85153)"
71,CHOCONUT CENTER FIRE DEPARTMENT,4007,1011 MIDDLE STELLA IRELD RD,BINGHAMTON,NY,13905,4,Broome,6077970914.0,42.159209999999995,-75.92738,"(42.15921, -75.92738)"
72,CONKLIN FIRE DEPARTMENT,4008,1032 CONKLIN RD,CONKLIN,NY,13748,4,Broome,6077750370.0,42.078376,-75.823243,"(42.078376, -75.823243)"
73,DEPOSIT FIRE DEPARTMENT,4009,130 SECOND STREET,DEPOSIT,NY,13754,4,Broome,6074672894.0,42.06305,-75.42649,"(42.06305, -75.42649)"
75,ENDICOTT FIRE DEPARMENT,4011,1009 EAST MAIN STREET,ENDICOTT,NY,13760,4,Broome,6077572463.0,42.098898,-76.049109,"(42.098898, -76.049109)"
76,ENDWELL FIRE DEPARTMENT,4012,3508 COUNTRY CLUB ROAD,ENDWELL,NY,13760,4,Broome,6077850985.0,42.116163,-76.01858100000001,"(42.116163, -76.018581)"
77,FIVE MILE POINT FIRE DEPARTMENT,4013,16 CRESCENT DRIVE,KIRKWOOD,NY,13795,4,Broome,6077753322.0,42.091499,-75.82299599999999,"(42.091499, -75.822996)"
78,GLEN AUBREY FIRE DEPARTMENT,4014,PO BOX 328,GLEN AUBREY,NY,13777,4,Broome,6076928230.0,42.2457,-75.98993,"(42.2457, -75.98993)"
79,HARPURSVILLE FIRE DEPARTMENT,4015,2 MAIN STREET PO BOX 98,HARPURSVILLE,NY,13787,4,Broome,6076931454.0,42.178566,-75.624686,"(42.178566, -75.624686)"
80,HILLCREST FIRE DEPARTMENT,4016,1115 AVENUE B,BINGHAMTON,NY,13901,4,Broome,6077782110.0,42.149190000000004,-75.88387900000001,"(42.14919, -75.883879)"
81,JOHNSON CITY FIRE DEPARTMENT,4018,320 HARRY L DRIVE,JOHNSON CITY,NY,13790,4,Broome,6077299512.0,42.122658,-75.961976,"(42.122658, -75.961976)"
82,KILLAWOG FIRE DEPARTMENT,4019,PO BOX 13,KILLAWOG,NY,13794,4,Broome,6078496194.0,42.400459999999995,-76.02046,"(42.40046, -76.02046)"
83,KIRKWOOD FIRE DEPARTMENT,4020,297 MAIN STREET,KIRKWOOD,NY,13795,4,Broome,6077752411.0,42.03948,-75.797248,"(42.03948, -75.797248)"
84,LISLE FIRE DEPARTMENT,4021,ST RT 79 PO BOX 306,LISLE,NY,13797,4,Broome,6076923411.0,42.353093,-76.01085,"(42.353093, -76.01085)"
85,MAINE FIRE DEPARTMENT,4022,29 MC GREGOR AVE PO BOX 357,MAINE,NY,13802,4,Broome,6078623927.0,42.23717,-76.05457,"(42.23717, -76.05457)"
86,NANTICOKE FIRE DEPARTMENT,4023,1042 NANTICOKE ROAD,MAINE,NY,13802,4,Broome,6078623296.0,42.269490000000005,-76.05480899999999,"(42.26949, -76.054809)"
87,OUAQUAGA FIRE DEPARTMENT,4025,PO BOX 5,WINDSOR,NY,13865,4,Broome,6076551913.0,42.11097,-75.64151,"(42.11097, -75.64151)"
89,PORT DICKINSON FIRE DEPARTMENT,4027,786 CHENANGO STREET,BINGHAMTON,NY,13901,4,Broome,6077221256.0,42.138373,-75.89541,"(42.138373, -75.89541)"
90,PROSPECT TERRACE FIRE DEPARTMENT,4028,PROSPECT ST & GIRARD AVE,BINGHAMTON,NY,13905,4,Broome,6077293741.0,42.11418,-75.93491,"(42.11418, -75.93491)"
91,SANITARIA SPRINGS FIRE DEPT,4029,811 NY ROUTE 7,SANITARIA SPRINGS,NY,13833,4,Broome,6076482332.0,42.189609999999995,-75.78658,"(42.18961, -75.78658)"
92,TOWN OF BINGHAMTON DEPARTMENT,4030,22 REXFORD STREET,BINGHAMTON,NY,13903,4,Broome,6076694146.0,42.069611,-75.918801,"(42.069611, -75.918801)"
94,UNION CENTER FIRE COMPANY INC,4032,PO BOX 8800,ENDICOTT,NY,13762,4,Broome,6077481321.0,42.120709999999995,-76.05295,"(42.12071, -76.05295)"
95,VESTAL FIRE DEPARTMENT,4034,605 VESTAL PARKWAY WEST,VESTAL,NY,13850,4,Broome,6077481514.0,42.083166,-76.065433,"(42.083166, -76.065433)"
97,WEST CORNERS FIRE DEPARTMENT,4036,500 DAY HOLLOW ROAD,ENDICOTT,NY,13760,4,Broome,6077854185.0,42.111249,-76.073003,"(42.111249, -76.073003)"
99,WEST WINDSOR FIRE DEPARTMENT,4038,8 CARLA DRIVE,WINDSOR,NY,13865,4,Broome,6077752918.0,42.096876,-75.76490600000001,"(42.096876, -75.764906)"
100,WHITNEY POINT FIRE DEPARTMENT,4039,32 N PARSONS DR,WHITNEY POINT,NY,13862,4,Broome,6076923845.0,42.328955,-75.967353,"(42.328955, -75.967353)"
102,ALLEGANY FIRE DEPARTMENT,5001,PO BOX 95,ALLEGANY,NY,14706-0095,5,Cattaraugus,7163730477.0,42.094612,-78.49954,"(42.094612, -78.49954)"
103,CATTARAUGUS FIRE DEPARTMENT,5002,MEMORIAL DRIVE,CATTARAUGUS,NY,14719,5,Cattaraugus,7169389491.0,42.319333,-78.866453,"(42.319333, -78.866453)"
105,DAYTON FIRE DEPARTMENT,5004,12749 COTTAGE ROAD,SOUTH DAYTON,NY,14138,5,Cattaraugus,7165322627.0,42.40311,-78.97281,"(42.40311, -78.97281)"
106,DELEVAN FIRE DEPARTMENT,5005,85 S MAIN ST PO BOX 218,DELEVAN,NY,14042,0,Cattaraugus,7164920945.0,42.488256,-78.48040999999999,"(42.488256, -78.48041)"
108,EAST RANDOLPH FIRE DEPARTMENT,5007,147 MAIN STREET ER,EAST RANDOLPH,NY,14730,5,Cattaraugus,7163586070.0,42.171685,-78.94941,"(42.171685, -78.94941)"
109,ELLICOTTVILLE FIRE DEPARTMENT,5008,PO BOX 397,ELLICOTTVILLE,NY,14731,5,Cattaraugus,7166992717.0,42.2971,-78.64981999999999,"(42.2971, -78.64982)"
110,FARMERSVILLE FIRE DEPARTMENT,5009,ELTON ROAD,FARMERSVILLE STATION,NY,14060,5,Cattaraugus,7166765717.0,42.428311,-78.359776,"(42.428311, -78.359776)"
111,FRANKLINVILLE FIRE DEPARTMENT,5010,75 NORTH MAIN ST PO BOX 74,FRANKLINVILLE,NY,14737,5,Cattaraugus,7166762539.0,42.342979,-78.455747,"(42.342979, -78.455747)"
113,GOWANDA FIRE DEPARTMENT,5012,230 ALDRICH STREET,GOWANDA,NY,14070,5,Cattaraugus,7165323434.0,42.468796000000005,-78.941678,"(42.468796, -78.941678)"
114,HINSDALE FIRE DEPARTMENT,5013,MAIN STREET,HINSDALE,NY,14743,5,Cattaraugus,7163734119.0,42.169456,-78.383949,"(42.169456, -78.383949)"
115,ISCHUA FIRE DEPARTMENT,5014,ROUTE 16,ISCHUA,NY,14746,5,Cattaraugus,7163780177.0,42.169456,-78.383949,"(42.169456, -78.383949)"
117,KNAPP CREEK FIRE DEPARTMENT,5016,253 NYS ROUTE 16 SOUTH,KNAPP CREEK,NY,14760,5,Cattaraugus,7163724523.0,42.077415,-78.43251,"(42.077415, -78.43251)"
118,MANSFIELD FIRE DEPARTMENT,5017,RFD 1 BOX 69 MAPLES,LITTLE VALLEY,NY,14755,5,Cattaraugus,7166995401.0,42.333312,-78.73539699999999,"(42.333312, -78.735397)"
119,LITTLE VALLEY FIRE DEPARTMENT,5018,101 3RD STREET,LITTLE VALLEY,NY,14755,5,Cattaraugus,7169389151.0,42.248853000000004,-78.797557,"(42.248853, -78.797557)"
120,LIMESTONE FIRE DEPARTMENT,5019,631 MAIN STREET,LIMESTONE,NY,14753,5,Cattaraugus,7169258813.0,42.026175,-78.628962,"(42.026175, -78.628962)"
122,MACHIAS FIRE DEPARTMENT,5021,9548 MAIN STREET,MACHIAS,NY,14101,5,Cattaraugus,7163534611.0,42.414357,-78.492458,"(42.414357, -78.492458)"
123,OLEAN FIRE DEPARTMENT (CITY),5022,542 NORTH UNION STREET,OLEAN,NY,14760,5,Cattaraugus,7163765609.0,42.08635,-78.42987600000001,"(42.08635, -78.429876)"
125,OTTO FIRE DEPARTMENT,5024,8960 OTTO - EAST OTTO ROAD,CATTARAUGUS,NY,14719-9645,5,Cattaraugus,7162579776.0,42.355976,-78.830843,"(42.355976, -78.830843)"
126,PERRYSBURG FIRE DEPARTMENT,5025,11949 MAIN STREET,PERRYSBURG,NY,14129,5,Cattaraugus,7165324441.0,42.45649,-79.002499,"(42.45649, -79.002499)"
128,RANDOLPH FIRE DEPARTMENT,5027,70 MAIN STREET,RANDOLPH,NY,14772,5,Cattaraugus,7163589300.0,42.172602000000005,-78.947487,"(42.172602, -78.947487)"
129,SALAMANCA FIRE DEPARTMENT,5028,225 WILDWOOD AVENUE,SALAMANCA,NY,14779,5,Cattaraugus,7169453311.0,42.156797999999995,-78.7075,"(42.156798, -78.7075)"
130,SOUTH DAYTON FIRE DEPARTMENT,5029,34 MAPLE STREET  PO BOX 88,SOUTH DAYTON,NY,14138,5,Cattaraugus,7169885153.0,42.361729,-79.04873,"(42.361729, -79.04873)"
131,COLDSPRING FIRE DEPARTMENT,5030,2603 RT 394,STEAMBURG,NY,14783,5,Cattaraugus,7163545425.0,42.108803,-78.911384,"(42.108803, -78.911384)"
132,VERSAILLES FIRE DEPARTMENT,5031,BUFFALO ROAD,VERSAILLES,NY,14168,5,Cattaraugus,7165324065.0,42.520164,-78.994416,"(42.520164, -78.994416)"
133,WESTONS MILLS FIRE DEPT,5032,PO BOX 601,WESTON MILLS,NY,14788,5,Cattaraugus,7163720280.0,42.062059999999995,-78.3782,"(42.06206, -78.3782)"
134,WEST VALLEY FIRE DEPARTMENT,5033,PO BOX 289,WEST VALLEY,NY,14171,5,Cattaraugus,7169423768.0,42.41152,-78.65312,"(42.41152, -78.65312)"
135,YORKSHIRE FIRE DEPARTMENT,5034,12211 CHURCH STREET,YORKSHIRE,NY,14173,5,Cattaraugus,7164924470.0,42.52949,-78.47811999999999,"(42.52949, -78.47812)"
136,LYNDON FIRE DEPARTMENT,5035,6943 ABBOTT ROAD,FRANKLINVILLE,NY,14737,5,Cattaraugus,7166765150.0,42.305095,-78.350587,"(42.305095, -78.350587)"
138,AUBURN CITY FIRE DEPARTMENT,6001,23 MARKET STREET,AUBURN,NY,13021,6,Cayuga,3152534031.0,42.933196,-76.56558000000001,"(42.933196, -76.56558)"
139,AURELIUS FIRE DEPARTMENT,6002,1241 W GENESEE STREET ROAD,AUBURN,NY,13021,6,Cayuga,3152520039.0,42.923817,-76.62485799999999,"(42.923817, -76.624858)"
140,AURORA FIRE DEPARTMENT,6003,456 MAIN STREET,AURORA,NY,13026,6,Cayuga,3153648590.0,42.757976,-76.70362,"(42.757976, -76.70362)"
141,CATO FIRE DEPARTMENT,6004,2569 E MAIN STREET,CATO,NY,13033,6,Cayuga,3156262393.0,43.175153,-76.553605,"(43.175153, -76.553605)"
143,FAIR HAVEN FIRE DEPARTMENT,6006,14430 FAIR HAVEN RD POB 334,FAIR HAVEN,NY,13064,6,Cayuga,3159475145.0,43.313855,-76.699919,"(43.313855, -76.699919)"
144,FLEMING #1 FIRE DEPARTMENT,6007,6063 WEST LAKE ROAD,AUBURN,NY,13021,6,Cayuga,3152526902.0,42.895616,-76.55104200000001,"(42.895616, -76.551042)"
145,FLEMING #2 FIRE DEPARTMENT,6008,5024 STATE RT 34,AUBURN,NY,13021,6,Cayuga,3152527371.0,42.92239,-76.56369000000001,"(42.92239, -76.56369)"
146,GENOA FIRE DEPARTMENT,6009,10015 RT 90,GENOA,NY,13071,6,Cayuga,3154970009.0,42.66778,-76.538061,"(42.66778, -76.538061)"
147,IRA FIRE DEPARTMENT,6010,12591 STATE ROUTE 176,CATO,NY,13033,6,Cayuga,3156262607.0,43.25495,-76.56449,"(43.25495, -76.56449)"
148,KING FERRY FIRE DEPARTMENT,6011,1009 ROUTE 34B PO BOX 419,KING FERRY,NY,13081,6,Cayuga,3153648940.0,42.67139,-76.61901,"(42.67139, -76.61901)"
149,LOCKE FIRE DEPARTMENT,6012,900 MAIN STREET  BOX 78,LOCKE,NY,13092,6,Cayuga,3154970595.0,42.663470000000004,-76.43075999999999,"(42.66347, -76.43076)"
150,MERIDIAN FIRE DEPARTMENT,6013,11375 FERRIS ROAD,MERIDIAN,NY,13113,6,Cayuga,3156263167.0,43.169435,-76.53723000000001,"(43.169435, -76.53723)"
151,MORAVIA FIRE DEPARTMENT,6014,38 KEELER AVE PO BOX 686,MORAVIA,NY,13118,6,Cayuga,3154971700.0,42.715114,-76.424566,"(42.715114, -76.424566)"
152,MONTEZUMA FIRE DEPARTMENT,6015,8115 HIGH ST BOX 381,MONTEZUMA,NY,13117,6,Cayuga,3157764316.0,43.010267,-76.703687,"(43.010267, -76.703687)"
153,NEW HOPE FIRE DEPARTMENT,6016,5947 NEW HOPE ROAD,MORAVIA,NY,13118,6,Cayuga,3154970448.0,42.797917,-76.349131,"(42.797917, -76.349131)"
154,OWASCO FIRE DEPARTMENT,6017,7174 OWASCO ROAD,AUBURN,NY,13021,6,Cayuga,3152539197.0,42.916603,-76.545537,"(42.916603, -76.545537)"
155,POPLAR RIDGE FIRE DEPARTMENT,6018,PO BOX 55,POLAR RIDGE,NY,13139,6,Cayuga,3153647344.0,42.73843,-76.61771999999999,"(42.73843, -76.61772)"
156,PORT BYRON FIRE DEPARTMENT,6019,50 UTICA ST,PORT BYRON,NY,13181,6,Cayuga,3157768670.0,43.036497999999995,-76.621459,"(43.036498, -76.621459)"
157,SCIPIO CENTER FIRE DEPARTMENT,6020,3550 ROUTE 34,SCIPIO CENTER,NY,13147,6,Cayuga,3153647323.0,42.783229999999996,-76.56877,"(42.78323, -76.56877)"
158,SENNETT FIRE DEPARTMENT,6021,PO BOX 1524,AUBURN,NY,13021,6,Cayuga,3152523993.0,42.92239,-76.56369000000001,"(42.92239, -76.56369)"
159,THROOP FIRE DEPARTMENT,6022,7159 BEECH TREE RD,AUBURN,NY,13021,6,Cayuga,3152524051.0,42.963196999999994,-76.606987,"(42.963197, -76.606987)"
160,UNION SPRINGS FIRE DEPARTMENT,6023,257 CAYUGA STREET,UNION SPRINGS,NY,13160,6,Cayuga,3158897288.0,42.852348,-76.69077,"(42.852348, -76.69077)"
161,VICTORY FIRE DEPARTMENT,6024,12009 ROUTE 38,CATO,NY,13033,6,Cayuga,3156266682.0,43.17423,-76.55246,"(43.17423, -76.55246)"
163,LONG HILL FIRE DEPARTMENT,6026,3513 LONG HILL ROAD,VENICE CENTER,NY,13147,6,Cayuga,3154973805.0,42.739826,-76.508616,"(42.739826, -76.508616)"
164,SEMPRONIUS FIRE DEPARTMENT,6027,2284 RT 41A,MORAVIA,NY,13118,6,Cayuga,3154962084.0,42.739709999999995,-76.38689000000001,"(42.73971, -76.38689)"
165,WEST NILES FIRE DEPARTMENT,6028,3956 VALENTINE ROAD,MORAVIA,NY,13118,6,Cayuga,3157845093.0,42.809473,-76.470236,"(42.809473, -76.470236)"
166,CONQUEST FIRE DEPARTMENT,6029,10351 SLAYTON ROAD,PORT BYRON,NY,13140,6,Cayuga,3157764512.0,43.120255,-76.64050999999999,"(43.120255, -76.64051)"
167,ASHVILLE FIRE DEPARTMENT,7001,4853 ROUTE 474  PO BOX 129,ASHVILLE,NY,14710,7,Chautauqua,7167638196.0,42.10429,-79.38114,"(42.10429, -79.38114)"
168,BEMUS POINT FIRE DEPARTMENT,7002,13 ALBURTUS AVE PO BOX 306,BEMUS POINT,NY,14712,7,Chautauqua,7163866011.0,42.158577,-79.392522,"(42.158577, -79.392522)"
169,BROCTON FIRE DEPARTMENT,7003,80 LAKE AVE PO BOX 457,BROCTON,NY,14716,7,Chautauqua,7167924734.0,42.392564,-79.44116,"(42.392564, -79.44116)"
170,BUSTI FIRE DEPARTMENT,7004,886 MILL ROAD,JAMESTOWN,NY,14701,7,Chautauqua,7164871271.0,42.037701,-79.283338,"(42.037701, -79.283338)"
171,CASSADAGA FIRE DEPARTMENT,7005,22 MILL STREET PO BOX 226,CASSADAGA,NY,14718,7,Chautauqua,7165953131.0,42.341653,-79.310307,"(42.341653, -79.310307)"
172,CELORON FIRE DEPARTMENT,7006,92 DUNHAM AVENUE PO BOX 328,CELORON,NY,14720,7,Chautauqua,7164881788.0,42.101517,-79.283424,"(42.101517, -79.283424)"
173,CHAUTAUQUA FIRE DEPARTMENT,7007,2 ROYAL WAY PO BOX F,CHAUTAUQUA,NY,14722,7,Chautauqua,7163572905.0,42.25483,-79.50418,"(42.25483, -79.50418)"
174,CHERRY CREEK FIRE DEPARTMENT,7008,6763 MAIN STREET,CHERRY CREEK,NY,14723,7,Chautauqua,7162965757.0,42.293397999999996,-79.099808,"(42.293398, -79.099808)"
175,CLYMER FIRE DEPARTMENT,7009,8756 W MAIN STREET,CLYMER,NY,14724,7,Chautauqua,7163559954.0,42.020865,-79.631002,"(42.020865, -79.631002)"
176,DEWITTVILLE FIRE DEPARTMENT,7010,5459 E LAKE RD PO BOX 28,DEWITTVILLE,NY,14728,7,Chautauqua,7167537231.0,42.26316,-79.41301999999999,"(42.26316, -79.41302)"
177,DUNKIRK FIRE DEPARTMENT,7011,311 EAGLE ST,DUNKIRK,NY,14048,7,Chautauqua,7163662577.0,42.484331,-79.33646,"(42.484331, -79.33646)"
178,EAST DUNKIRK FIRE DEPARTMENT,7012,10949 SOUTH ROBERTS ROAD,DUNKIRK,NY,14048,7,Chautauqua,7163662211.0,42.474927,-79.306002,"(42.474927, -79.306002)"
179,ELLERY CENTER FIRE DEPARTMENT,7013,4400 DUTCH HOLLOW ROAD,BEMUS POINT,NY,14712,7,Chautauqua,7163865381.0,42.17896,-79.34333199999999,"(42.17896, -79.343332)"
180,ELLINGTON FIRE DEPARTMENT,7014,769 W MAIN ST  PO BOX 59,ELLINGTON,NY,14732,7,Chautauqua,7162872168.0,42.215920000000004,-79.10791,"(42.21592, -79.10791)"
181,FALCONER FIRE DEPARTMENT,7015,101 W MAIN STREET,FALCONER,NY,14733,7,Chautauqua,7166656208.0,42.117123,-79.197971,"(42.117123, -79.197971)"
182,FINDLEY LAKE FIRE DEPARTMENT,7016,10372 MAIN ST PO BOX 158,FINDLEY LAKE,NY,14736,7,Chautauqua,7167697321.0,42.12942,-79.7416,"(42.12942, -79.7416)"
183,FLUVANNA FIRE DEPARTMENT,7017,3536 FLUVANNA AVE EXT,JAMESTOWN,NY,14701,7,Chautauqua,7164838505.0,42.11889,-79.290769,"(42.11889, -79.290769)"
184,FORESTVILLE FIRE DEPARTMENT,7018,18 CHESTNUT ST PO BOX 299,FORESTVILLE,NY,14062,7,Chautauqua,7169654106.0,42.468965000000004,-79.179586,"(42.468965, -79.179586)"
185,FREDONIA FIRE DEPARTMENT,7019,80 WEST MAIN STREET,FREDONIA,NY,14063,7,Chautauqua,7166722124.0,42.438063,-79.33336,"(42.438063, -79.33336)"
186,FREWSBURG FIRE DEPARTMENT,7020,88 W MAIN ST PO BOX 590,FREWSBURG,NY,14736,7,Chautauqua,7165693505.0,42.052704999999996,-79.163838,"(42.052705, -79.163838)"
187,GERRY FIRE DEPARTMENT,7021,4490 GERRY LEVNT RD POB 182,GERRY,NY,14740,7,Chautauqua,7169854648.0,42.192985,-79.248063,"(42.192985, -79.248063)"
188,HARTFIELD FIRE DEPARTMENT,7022,PO BOX 182  6078 ELMWOOD RD,MAYVILLE,NY,14757,7,Chautauqua,7167532459.0,42.24224,-79.49710999999999,"(42.24224, -79.49711)"
189,IRVING FIRE DEPARTMENT,7023,12847 ERIE ST  PO BOX 357,IRVING,NY,14081,7,Chautauqua,7169344639.0,42.562509999999996,-79.135982,"(42.56251, -79.135982)"
190,JAMESTOWN FIRE DEPARTMENT,7024,200 SPRING STREET,JAMESTOWN,NY,14701,7,Chautauqua,7164837598.0,42.095983000000004,-79.238599,"(42.095983, -79.238599)"
191,KENNEDY FIRE DEPARTMENT NO 1,7025,3590 DAILEY HILL ROAD,KENNEDY,NY,14747,7,Chautauqua,7162674655.0,42.157967,-79.10243299999999,"(42.157967, -79.102433)"
192,KIANTONE FIRE DEPARTMENT,7026,2318 STILLWATR FREWSBURG RD,JAMESTOWN,NY,14701,7,Chautauqua,7166645433.0,42.058799,-79.21246,"(42.058799, -79.21246)"
193,LAKEWOOD FIRE DEPARTMENT,7027,37 J W PACKARD BLVD,LAKEWOOD,NY,14750,7,Chautauqua,7167633005.0,42.100246999999996,-79.324943,"(42.100247, -79.324943)"
194,LILY DALE FIRE DEPARTMENT,7028,17 EAST STREET PO BOX 245,LILY DALE,NY,14752-0245,7,Chautauqua,7165953470.0,42.34905,-79.32952,"(42.34905, -79.32952)"
195,MAPLE SPRINGS FIRE DEPARTMENT,7029,PO BOX D  5385 MAPLE SPG,MAPLE SPRINGS,NY,14756,7,Chautauqua,7163862114.0,42.19681,-79.42209,"(42.19681, -79.42209)"
196,MAYVILLE FIRE DEPARTMENT,7030,1 S ERIE ST PO BOX 2,MAYVILLE,NY,14757,7,Chautauqua,7167532322.0,42.253904999999996,-79.504809,"(42.253905, -79.504809)"
197,PANAMA FIRE DEPARTMENT,7031,27 E MAIN ST  PO BOX 57,PANAMA,NY,14769,7,Chautauqua,7167822345.0,42.074996999999996,-79.480151,"(42.074997, -79.480151)"
198,PORTLAND FIRE DEPT,7032,6481 W MAIN RD PO BOX 229,PORTLAND,NY,14769-0229,7,Chautauqua,7167929296.0,42.375112,-79.478238,"(42.375112, -79.478238)"
199,RIPLEY FIRE DEPARTMENT,7033,15 SOUTH STATE ST,RIPLEY,NY,14775,7,Chautauqua,7167362001.0,42.265369,-79.709523,"(42.265369, -79.709523)"
200,SHERIDAN FIRE DEPARTMENT,7034,2800 ROUTE 20 PO BOX 122,SHERIDAN,NY,14135,7,Chautauqua,7166791212.0,42.48687,-79.23661,"(42.48687, -79.23661)"
201,SHERMAN FIRE DEPARTMENT,7035,PO BOX 574  122 PARK ST,SHERMAN,NY,14781,7,Chautauqua,7167616700.0,42.160705,-79.59506800000001,"(42.160705, -79.595068)"
202,SILVER CREEK FIRE DEPARTMENT,7036,172 CENTRAL AVE PO BOX 70,SILVER CREEK,NY,14136,7,Chautauqua,7169343036.0,42.545033000000004,-79.169914,"(42.545033, -79.169914)"
203,SINCLAIRVILLE FIRE DEPARTMENT,7037,30 MAIN ST PO BOX 403,SINCLAIRVILLE,NY,14782,7,Chautauqua,7169622025.0,42.263965,-79.258937,"(42.263965, -79.258937)"
204,STOCKTON FIRE DEPARTMENT,7038,7243 ROUTE 380 PO BOX 12,STOCKTON,NY,14784,7,Chautauqua,7165953068.0,42.31556,-79.38198,"(42.31556, -79.38198)"
205,SUNSET BAY FIRE DEPARTMENT,7039,12798 ALLEGANY ROAD,IRVING,NY,14081,7,Chautauqua,7169344880.0,42.560755,-79.131909,"(42.560755, -79.131909)"
206,WEST DUNKIRK FIRE DEPARTMENT,7040,4741 WILLOW ROAD,DUNKIRK,NY,14048,7,Chautauqua,7163661231.0,42.464089,-79.368298,"(42.464089, -79.368298)"
207,WESTFIELD FIRE DEPARTMENT,7041,20 CLINTON STREET,WESTFIELD,NY,14787,7,Chautauqua,7163262661.0,42.323651,-79.577671,"(42.323651, -79.577671)"
208,HANOVER FIRE DEPARTMENT,7042,11919 HANOVER ROAD,SILVER CREEK,NY,14136,7,Chautauqua,7169347389.0,42.517845,-79.13170799999999,"(42.517845, -79.131708)"
209,BALDWIN FIRE DEPARTMENT,8002,460 BREESPORT-N CHEMUNG RD,LOWMAN,NY,14861,8,Chemung,6077343068.0,42.088246999999996,-76.700091,"(42.088247, -76.700091)"
210,BIG FLATS FIRE DEPARTMENT,8003,PO BOX 28  505 MAPLE STREET,BIG FLATS,NY,14814,8,Chemung,6075623063.0,42.141059999999996,-76.933014,"(42.14106, -76.933014)"
211,BREESPORT FIRE DEPARTMENT,8004,3 JACKSON AVENUE PO BOX A,BREESPORT,NY,14816,8,Chemung,6077391953.0,42.18075,-76.73351,"(42.18075, -76.73351)"
212,CHEMUNG VOLUNTEER FIRE DEPT,8005,679 MAIN STREET,CHEMUNG,NY,14825,8,Chemung,6075293233.0,42.051159999999996,-76.6233,"(42.05116, -76.6233)"
213,ELMIRA FIRE DEPARTMENT,8006,101-109 WEST SECOND STREET,ELMIRA,NY,14901,8,Chemung,6077375700.0,42.091892,-76.807425,"(42.091892, -76.807425)"
214,ELMIRA HEIGHTS FIRE DEPARTMENT,8007,215 ELMWOOD AVENUE,ELMIRA HEIGHTS,NY,13094,8,Chemung,6077336580.0,42.127812,-76.82168,"(42.127812, -76.82168)"
215,ERIN FIRE DEPARTMENT,8008,1462 BREESPORT ROAD,ERIN,NY,14838,8,Chemung,6077393417.0,42.185947,-76.666193,"(42.185947, -76.666193)"
216,GOLDEN GLOW FIRE DEPT,8009,39 ALVORD DR PO BOX 3045,ELMIRA,NY,14902,8,Chemung,6077344474.0,42.084094,-76.872496,"(42.084094, -76.872496)"
217,HORSEHEADS FIRE DEPARTMENT,8010,134 N MAIN STREET,HORSEHEADS,NY,14845,8,Chemung,6077395045.0,42.169087,-76.822292,"(42.169087, -76.822292)"
218,MILLPORT FIRE DEPARTMENT,8011,2016 CRESCENT ST  PO BOX A,MILLPORT,NY,14864,8,Chemung,6077391030.0,42.265533000000005,-76.835538,"(42.265533, -76.835538)"
219,PINE CITY FIRE DEPARTMENT,8012,1463 PENNSYLVANIA AV POB 72,PINE CITY,NY,14871,8,Chemung,6077336941.0,42.040915000000005,-76.859952,"(42.040915, -76.859952)"
220,SOUTHPORT FIRE DEPARTMENT,8014,1001 CARL STREET,ELMIRA,NY,14904,8,Chemung,6077337599.0,42.059441,-76.80901300000001,"(42.059441, -76.809013)"
221,TOMPKINS CORNERS FIRE DEPARTMENT,8015,422 CHAMBERS RD,HORSEHEADS,NY,14845,8,Chemung,6077397415.0,42.204287,-76.88920999999999,"(42.204287, -76.88921)"
222,TOWN AND COUNTRY FIRE DEPARTMENT,8016,130 GARDNER ROAD,HORSEHEADS,NY,14845,8,Chemung,6077397134.0,42.167265,-76.83215600000001,"(42.167265, -76.832156)"
223,VAN ETTEN FIRE DEPARTMENT,8017,2 HIXSON STREET  PO BOX 88,VAN ETTEN,NY,14889,8,Chemung,6075894530.0,42.198578999999995,-76.55134,"(42.198579, -76.55134)"
224,WEBB MILLS FIRE DEPARTMENT,8018,PO BOX 97,PINE CITY,NY,14871,8,Chemung,6077321028.0,42.03588,-76.87267,"(42.03588, -76.87267)"
225,WELLSBURG FIRE DEPARTMENT,8019,3661 FRONT STREET PO BOX 23,WELLSBURG,NY,14894,8,Chemung,6077347628.0,42.02112,-76.76890999999999,"(42.02112, -76.76891)"
226,WEST HILL FIRE DEPARTMENT,8020,471 WEST HILL ROAD,ELMIRA,NY,14903,8,Chemung,6077333346.0,42.116834000000004,-76.864283,"(42.116834, -76.864283)"
227,EAST HILL FIRE DEPARTMENT,8022,266 JERUSALEM HILL ROAD,ELMIRA,NY,14901,8,Chemung,6077345535.0,42.083858,-76.760796,"(42.083858, -76.760796)"
228,WEST ELMIRA FIRE DEPT,8023,1299 WEST WATER STREET,ELMIRA,NY,14905,8,Chemung,6077342204.0,42.077852,-76.845352,"(42.077852, -76.845352)"
230,AFTON FIRE DEPARTMENT,9001,15 SPRING STREET,AFTON,NY,13730,9,Chenango,6076391848.0,42.228584999999995,-75.527079,"(42.228585, -75.527079)"
231,BAINBRIDGE FIRE DEPARTMENT,9002,22 WEST MAIN,BAINBRIDGE,NY,13733,9,Chenango,6079673281.0,42.294084999999995,-75.48035,"(42.294085, -75.48035)"
232,BORDEN HOSE FIRE DEPARTMENT,9003,PO BOX 197,MT UPTON,NY,13809,9,Chenango,6077648517.0,42.39255,-75.40071999999999,"(42.39255, -75.40072)"
233,BRISBEN FIRE DEPARTMENT,9004,2716 STATE HIGHWAY 12,BRISBEN,NY,13830,9,Chenango,6076568130.0,42.4291,-75.62265,"(42.4291, -75.62265)"
234,COVENTRY FIRE DEPARTMENT,9005,109 NORTH ROAD,GREENE,NY,13778,9,Chenango,6076568071.0,42.316654,-75.63854,"(42.316654, -75.63854)"
235,GENEGANTSLET FIRE DEPARTMENT,9007,PO BOX 151,SMITHVILLE FLATS,NY,13841,9,Chenango,6076564382.0,42.39885,-75.83935,"(42.39885, -75.83935)"
236,GUILFORD FIRE DEPARTMENT,9008,110 MECHANIC STREET,GUILFORD,NY,13780,9,Chenango,6078956814.0,42.404721,-75.491374,"(42.404721, -75.491374)"
237,GREENE FIRE DEPARTMENT,9009,8 NORTH CANAL STREET,GREENE,NY,13778,9,Chenango,6076569724.0,42.330905,-75.77073,"(42.330905, -75.77073)"
238,MC DONOUGH FIRE DEPARTMENT,9010,PO BOX 99,MC DONOUGH,NY,13801,9,Chenango,6076475308.0,42.50227,-75.77655,"(42.50227, -75.77655)"
239,NORWICH FIRE DEPARTMENT,9011,31 EAST MAIN STREET,NORWICH,NY,13815,9,Chenango,6073343411.0,42.531471,-75.521233,"(42.531471, -75.521233)"
240,NORTH NORWICH FIRE DEPARTMENT,9012,108 BEACH LANE BOX X,NORTH NORWICH,NY,13814,9,Chenango,6073347340.0,42.61792,-75.52279,"(42.61792, -75.52279)"
241,NEW BERLIN FIRE DEPARTMENT,9013,PO BOX T,NEW BERLIN,NY,13411,9,Chenango,6078478516.0,42.6244,-75.33074,"(42.6244, -75.33074)"
242,OXFORD FIRE DEPARTMENT,9014,20 MAIN STREET PO BOX 570,OXFORD,NY,13830,9,Chenango,6078437951.0,42.4291,-75.62265,"(42.4291, -75.62265)"
243,PRESTON FIRE DEPARTMENT,9015,124 CTY RD 19,OXFORD,NY,13830,9,Chenango,6073361013.0,42.46151,-75.62572,"(42.46151, -75.62572)"
244,PLYMOUTH FIRE DEPARTMENT,9016,3461 STATE RTE 23 PO BX 112,PLYMOUTH,NY,13832,9,Chenango,6073343049.0,42.65984,-75.6709,"(42.65984, -75.6709)"
245,SHERBURNE FIRE DEPARTMENT,9017,15 WEST STATE STREET,SHERBURNE,NY,13460,9,Chenango,6076749560.0,42.678275,-75.499937,"(42.678275, -75.499937)"
246,SMYRNA FIRE DEPARTMENT,9018,1 EAST MAIN STREET,SMYRNA,NY,13464,9,Chenango,6076276222.0,42.67687,-75.61705,"(42.67687, -75.61705)"
247,SOUTH NEW BERLIN FIRE DEPT,9019,PO BOX 164,SOUTH NEW BERLIN,NY,13843,9,Chenango,6078592284.0,42.53002,-75.38608,"(42.53002, -75.38608)"
248,SOUTH OTSELIC FIRE DEPARTMENT,9020,1577 STATE HWY 26 PO BOX 41,SOUTH OTSELIC,NY,13155,9,Chenango,3156534455.0,42.65152,-75.77114,"(42.65152, -75.77114)"
249,PHARSALIA FIRE DEPARTMENT,9023,838 COUNTY ROAD 10,EAST PHARSALIA,NY,13758,9,Chenango,6076475772.0,42.50227,-75.77655,"(42.50227, -75.77655)"
250,ALTONA FIRE DEPARTMENT,10002,PO BX 36  480 DEVILS DEN RD,ALTONA,NY,12910,10,Clinton,5182367223.0,44.886813000000004,-73.655651,"(44.886813, -73.655651)"
251,BEEKMANTOWN FIRE DEPARTMENT,10004,6973 STATE ROUTE 22,WEST CHAZY,NY,12992,10,Clinton,5185634303.0,44.70092,-73.46677,"(44.70092, -73.46677)"
253,CADYVILLE FIRE DEPARTMENT,10005,PO BOX 97   2122 ROUTE 3,CADYVILLE,NY,12918,10,Clinton,5182938326.0,44.68187,-73.6683,"(44.68187, -73.6683)"
254,CHAMPLAIN FIRE DEPARTMENT,10006,612 ELM STREET PO BOX 489,CHAMPLAIN,NY,12919,10,Clinton,5182985500.0,44.986090999999995,-73.44157,"(44.986091, -73.44157)"
255,CHAZY FIRE DEPARTMENT,10007,9666 ROUTE 9,CHAZY,NY,12921,10,Clinton,5188467326.0,44.86955,-73.45399,"(44.86955, -73.45399)"
256,DANNEMORA VILLAGE FIRE DEPT,10008,163 EMMONS ST PO BOX 123,DANNEMORA,NY,12929,10,Clinton,5184922202.0,44.722082,-73.724254,"(44.722082, -73.724254)"
257,CUMBERLAND HEAD FIRE DEPARTMENT,10009,38 FIREHOUSE LANE,PLATTSBURGH,NY,12901,10,Clinton,5185616515.0,44.723861,-73.417963,"(44.723861, -73.417963)"
258,ELLENBURG CENTER FIRE DEPARTMENT,10012,1 CHURCH STREET PO BOX 1,ELLENBURG CENTER,NY,12934,10,Clinton,5185943850.0,44.864449,-73.894774,"(44.864449, -73.894774)"
259,CAIRO HOSE FIRE DEPARTMENT,20004,BOX 500,CAIRO,NY,12413,20,Greene,5186223112.0,42.301629999999996,-73.99801,"(42.30163, -73.99801)"
260,ELLENBURG DEPOT FIRE DEPARTMENT,10013,5035 ROUTE 11,ELLENBURG DEPOT,NY,12935,10,Clinton,5185947010.0,44.860690000000005,-73.78495,"(44.86069, -73.78495)"
261,KEESEVILLE FIRE DEPARTMENT,10014,8 PLEASANT STREET,KEESEVILLE,NY,12944,10,Clinton,5188349053.0,44.508275,-73.48049300000001,"(44.508275, -73.480493)"
262,LYON MOUNTAIN FIRE DEPARTMENT,10015,9 FIREHOUSE RD PO BOX 145,LYON MOUNTAIN,NY,12952,10,Clinton,5187354334.0,44.725770000000004,-73.95432,"(44.72577, -73.95432)"
263,MOOERS FIRE DEPARTMENT,10016,2508 RT 11    MAIN STREET,MOOERS,NY,12958,10,Clinton,5182365311.0,44.95898,-73.58159,"(44.95898, -73.58159)"
264,MORRISONVILLE FIRE DEPARTMENT,10017,PO BOX 207  1927 RTE 22B,MORRISONVILLE,NY,12962,10,Clinton,5185631112.0,44.694264000000004,-73.56376,"(44.694264, -73.56376)"
265,PERU FIRE DEPARTMENT,10018,753 BEAR SWAMP RD PO BX 635,PERU,NY,12972,10,Clinton,5186439271.0,44.57674,-73.5165,"(44.57674, -73.5165)"
266,PLATTSBURGH FIRE DEPARTMENT,10019,65 CORNELIA STREET,PLATTSBURGH,NY,12901,10,Clinton,5185612347.0,44.699168,-73.45663,"(44.699168, -73.45663)"
267,ROUSES POINT FIRE DEPARTMENT,10021,48 LAKE STREET,ROUSES POINT,NY,12979,10,Clinton,5182975502.0,44.995546000000004,-73.36531,"(44.995546, -73.36531)"
268,SARANAC FIRE DEPARTMENT,10022,PO BOX 130  3277 RTE 3,SARANAC,NY,12981,10,Clinton,5182938290.0,44.666000000000004,-73.76888000000001,"(44.666, -73.76888)"
269,SOUTH PLATTSBURGH FIRE DEPT,10023,PO BOX 2009,PLATTSBURGH,NY,12901,10,Clinton,5187260058.0,44.651672999999995,-73.444811,"(44.651673, -73.444811)"
270,WEST CHAZY FIRE DEPARTMENT,10024,7656 RT 22 PO BOX 185,WEST CHAZY,NY,12992,10,Clinton,5184934995.0,44.812264,-73.506217,"(44.812264, -73.506217)"
271,CHURUBUSCO FIRE DEPARTMENT,10025,1301 CLINTON MLS RD POB 26,CHURUBUSCO,NY,12923,10,Clinton,5184976623.0,44.954264,-73.92740699999999,"(44.954264, -73.927407)"
272,PLATTSBURG FD DISTRICT #3,10026,128 WALLACE HILL ROAD,PLATTSBURGH,NY,12901,10,Clinton,5185617370.0,44.720352,-73.48621999999999,"(44.720352, -73.48622)"
273,ANCRAM FIRE DEPARTMENT,11001,BOX 114,ANCRAM,NY,12502,11,Columbia,5183293430.0,42.06411,-73.6628,"(42.06411, -73.6628)"
274,CANAAN FIRE DEPARTMENT,11003,PO BOX 207,CANAAN,NY,12029,11,Columbia,5187814787.0,42.40609,-73.4299,"(42.40609, -73.4299)"
275,CHATHAM FIRE DEPARTMENT,11004,10 HOFFMAN AVENUE,CHATHAM,NY,12037,11,Columbia,5183922751.0,42.358261,-73.600431,"(42.358261, -73.600431)"
276,EAST CHATHAM FIRE DEPARTMENT,11005,43 ALESSI ROAD,OLD CHATHAM,NY,12136,11,Columbia,5183929469.0,42.410407,-73.52390600000001,"(42.410407, -73.523906)"
277,NORTH CHATHAM FIRE DEPARTMENT,11006,PO BOX 132,NORTH CHATHAM,NY,12132,11,Columbia,5187663366.0,42.476245,-73.626889,"(42.476245, -73.626889)"
278,CHURCHTOWN FIRE DEPARTMENT,11007,PO BOX 655,CLAVERACK,NY,12513,11,Columbia,5188512227.0,42.24822,-73.77091999999999,"(42.24822, -73.77092)"
279,CLAVERACK FIRE DEPARTMENT,11008,DRAWER A,CLAVERACK,NY,12513,11,Columbia,5188519869.0,42.21772,-73.70846999999999,"(42.21772, -73.70847)"
280,CLERMONT FIRE DEPARTMENT,11009,65 FIRE HOUSE ROAD,GERMANTOWN,NY,12526,11,Columbia,5185374803.0,42.090639,-73.894796,"(42.090639, -73.894796)"
281,COPAKE FIRE DEPARTMENT,11010,390 CENTER HILL ROAD,COPAKE,NY,12516,11,Columbia,5183294464.0,42.09881,-73.56392,"(42.09881, -73.56392)"
282,CRARYVILLE FIRE DEPARTMENT,11011,PO BOX 350,CRARYVILLE,NY,12521,11,Columbia,5183254888.0,42.16636,-73.64881,"(42.16636, -73.64881)"
283,GERMANTOWN FIRE DEPARTMENT,11013,PO BOX 331,GERMANTOWN,NY,12526,11,Columbia,5185375735.0,42.133057,-73.884509,"(42.133057, -73.884509)"
284,GHENT FIRE DEPARTMENT,11014,PO BOX 32,GHENT,NY,12075,11,Columbia,5183923838.0,42.326275,-73.61946999999999,"(42.326275, -73.61947)"
285,GREENPORT FIRE DEPARTMENT,11015,129 MIDDLE ROAD,HUDSON,NY,12534,11,Columbia,5188281719.0,42.24822,-73.77091999999999,"(42.24822, -73.77092)"
286,HILLSDALE FIRE DEPARTMENT,11016,9387 STATE RTE 22,HILLSDALE,NY,12529,11,Columbia,5183253098.0,42.184355,-73.517719,"(42.184355, -73.517719)"
287,HUDSON FIRE DEPARTMENT,11017,520 WARREN STREET,HUDSON,NY,12534,11,Columbia,5188229752.0,42.24822,-73.77091999999999,"(42.24822, -73.77092)"
288,KINDERHOOK FIRE DEPARTMENT,11018,39 CHATHAM STREET,KINDERHOOK,NY,12106,11,Columbia,5187589220.0,42.399075,-73.696028,"(42.399075, -73.696028)"
289,LEBANON VALLEY FIRE DEPARTMENT,11019,BOX 162,NEW LEBANON,NY,12125,11,Columbia,5187940519.0,42.466449,-73.392531,"(42.466449, -73.392531)"
290,LIVINGSTON FIRE DEPARTMENT,11021,PO BOX 34,LIVINGSTON,NY,12541-0034,11,Columbia,5188512710.0,42.11677,-73.71462,"(42.11677, -73.71462)"
291,MELLENVILLE FIRE DEPARTMENT,11022,33 COUNTY RT 9,MELLENVILLE,NY,12544,11,Columbia,5186727014.0,42.25193,-73.66104,"(42.25193, -73.66104)"
292,NIVERVILLE FIRE DEPARTMENT,11023,PO BOX 422,NIVERVILLE,NY,12130,11,Columbia,5187842961.0,42.4446,-73.65956,"(42.4446, -73.65956)"
293,PHILMONT FIRE DEPARTMENT,11024,1 MAPLE AVENUE,PHILMONT,NY,12565,11,Columbia,5186727401.0,42.25235,-73.64086,"(42.25235, -73.64086)"
294,RED ROCK FIRE DEPARTMENT,11025,99 CODY LANE,EAST CHATHAM,NY,12060,11,Columbia,5183926459.0,42.418,-73.48931,"(42.418, -73.48931)"
295,AUSTERLITZ FIRE DEPARTMENT,11026,PO BOX 98,SPENCERTOWN,NY,12165,11,Columbia,5183923578.0,42.316359999999996,-73.50175,"(42.31636, -73.50175)"
297,STOTTVILLE FIRE DEPARTMENT,11028,PO BOX 169,STOTTVILLE,NY,12172,11,Columbia,5188281817.0,42.286353999999996,-73.752545,"(42.286354, -73.752545)"
298,STUYVESANT FIRE DEPARTMENT,11029,194 ROUTE 26A,STUYVESANT,NY,12173,11,Columbia,5187993620.0,42.36834,-73.75346,"(42.36834, -73.75346)"
299,STUYVESANT FALLS FIRE DEPARTMENT,11030,9 FIREHOUSE LANE PO BOX 56,STUYVESANT FALLS,NY,12174,11,Columbia,5187996433.0,42.35589,-73.73004,"(42.35589, -73.73004)"
300,TAGHKANIC FIRE DEPARTMENT,11031,631 OLD ROUTE 82,WEST TAGHKANIC,NY,12502,11,Columbia,5188517476.0,42.06411,-73.6628,"(42.06411, -73.6628)"
301,TRI-VILLAGE FIRE DEPARTMENT,11032,593 ALBANY TPKE,OLD CHATHAM,NY,12136,11,Columbia,5183922386.0,42.44063,-73.557078,"(42.44063, -73.557078)"
302,VALATIE FIRE DEPARTMENT,11033,3102  LAKE STREET,VALATIE,NY,12184,11,Columbia,5187589732.0,42.416519,-73.672353,"(42.416519, -73.672353)"
303,WEST GHENT FIRE DEPARTMENT,11034,425 ROUTE 20,GHENT,NY,12075,11,Columbia,5188284502.0,42.285990000000005,-73.716537,"(42.28599, -73.716537)"
304,CINCINNATUS FIRE DEPARTMENT,12001,5722 TELEPHONE ROAD EXT,CINCINNATUS,NY,13040,12,Cortland,6078634445.0,42.541633000000004,-75.898535,"(42.541633, -75.898535)"
305,CORTLAND FIRE DEPARTMENT,12002,21 COURT STREET,CORTLAND,NY,13045,12,Cortland,6077565612.0,42.599301000000004,-76.178821,"(42.599301, -76.178821)"
306,CUYLER FIRE DEPARTMENT,12003,PO BOX 364,DE RUYTER,NY,13052,12,Cortland,6078426630.0,42.73261,-75.96738,"(42.73261, -75.96738)"
307,HARFORD FIRE DEPARTMENT,12004,760 RTE 221 PO BOX 7,HARFORD,NY,13784,12,Cortland,6078449200.0,42.42608,-76.22654,"(42.42608, -76.22654)"
308,HOMER FIRE DEPARTMENT,12005,45 SOUTH MAIN ST PO BOX 58,HOMER,NY,13077,12,Cortland,6077493121.0,42.635195,-76.17864399999999,"(42.635195, -76.178644)"
309,MARATHON FIRE DEPARTMENT,12006,PECK AVENUE PO BOX 488,MARATHON,NY,13803,12,Cortland,6078496157.0,42.440357,-76.034838,"(42.440357, -76.034838)"
310,MC GRAW FIRE DEPARTMENT,12007,7 W CENTER ST PO BOX 717,MC GRAW,NY,13101,12,Cortland,6078364123.0,42.594522999999995,-76.09568,"(42.594523, -76.09568)"
311,PREBLE FIRE DEPARTMENT,12008,1911 PREBLE ROAD,PREBLE,NY,13141,12,Cortland,6077494237.0,42.735555,-76.148975,"(42.735555, -76.148975)"
312,TRUXTON FIRE DEPARTMENT,12009,3741 RT 13 PO BOX 118,TRUXTON,NY,13158,12,Cortland,6078426291.0,42.73261,-75.96738,"(42.73261, -75.96738)"
313,VIRGIL FIRE DEPARTMENT,12010,1195 WEST STATE ROAD,CORTLAND,NY,13045,12,Cortland,6078356400.0,42.510555,-76.196537,"(42.510555, -76.196537)"
314,WILLET FIRE DEPARTMENT,12011,5524 RTE 41,WILLET,NY,13863,12,Cortland,6078633363.0,42.469285,-75.911568,"(42.469285, -75.911568)"
315,CORTLANDVILLE FIRE DEPARTMENT,12013,999 ROUTE 13,CORTLAND,NY,13045,12,Cortland,6077539014.0,42.579654,-76.20993,"(42.579654, -76.20993)"
316,ANDES FIRE DEPARTMENT,13001,5259 CO HWY 1  PO BOX 475,ANDES,NY,13731,13,Delaware,8456764588.0,42.18371,-74.789411,"(42.18371, -74.789411)"
317,ARENA FIRE DEPARTMENT,13002,2411 MILLBROOK RD,MARGARETVILLE,NY,12455,13,Delaware,9145864785.0,42.088440000000006,-74.69201,"(42.08844, -74.69201)"
318,ARKVILLE FIRE DEPT,13003,43365 STATE HIGHWAY 28,ARKVILLE,NY,12406,13,Delaware,9145864480.0,42.147643,-74.619711,"(42.147643, -74.619711)"
319,BLOOMVILLE FIRE DEPARTMENT,13004,POB 756  243 SCOTCH HILL RD,BLOOMVILLE,NY,13739,13,Delaware,6075389081.0,42.335547999999996,-74.811021,"(42.335548, -74.811021)"
320,BOVINA CENTER FIRE DEPARTMENT,13005,36 MAPLE AVENUE,BOVINA CENTER,NY,13740,13,Delaware,6078324857.0,42.262478,-74.78100699999999,"(42.262478, -74.781007)"
321,COOKS FALLS FIRE DEPARTMENT,13006,116 COOKS FALLS ROAD,ROSCOE,NY,12776,13,Delaware,6074984447.0,41.948057,-74.980598,"(41.948057, -74.980598)"
322,DAVENPORT FIRE DEPARTMENT,13007,15838 STATE HIGHWAY 23,DAVENPORT,NY,13750,13,Delaware,6072785222.0,42.47144,-74.84470999999999,"(42.47144, -74.84471)"
323,DELHI FIRE DEPARTMENT,13008,140 DELVIEW TERR EX POB 405,DELHI,NY,13753,13,Delaware,6077462221.0,42.27961,-74.91371,"(42.27961, -74.91371)"
324,DOWNSVILLE FIRE DEPARTMENT,13010,15166 STATE HIGHWAY 30,DOWNSVILLE,NY,13755,13,Delaware,6073637362.0,42.050670000000004,-75.01249,"(42.05067, -75.01249)"
325,EAST BRANCH FIRE DEPARTMENT,13011,29 BRIDGE STREET,EAST BRANCH,NY,13756,13,Delaware,6073637140.0,42.0392,-75.11213000000001,"(42.0392, -75.11213)"
326,EAST MEREDITH FIRE DEPARTMENT,13012,6192 COUNTY HIGHWAY 10,EAST MEREDITH,NY,13757,13,Delaware,6072785747.0,42.40775,-74.91055,"(42.40775, -74.91055)"
327,FLEISCHMANNS FIRE DEPARTMENT,13013,1298 MAIN STREET,FLEISCHMANNS,NY,12430,13,Delaware,9142545924.0,42.203509999999994,-74.48996,"(42.20351, -74.48996)"
328,FRANKLIN FIRE DEPARTMENT,13014,351 MAIN STREET,FRANKLIN,NY,13775,13,Delaware,6078292802.0,42.341664,-75.16431800000001,"(42.341664, -75.164318)"
329,GRAND GORGE HOSE FIRE DEPARTMENT,13015,37429 ST HWY 23 PO BOX 40,GRAND GORGE,NY,12434,13,Delaware,6075886666.0,42.42875,-74.652,"(42.42875, -74.652)"
330,HALCOTTSVILLE FIRE DEPARTMENT,13016,369 HALCOTTSVILLE ROAD,HALCOTTSVILLE,NY,12438,13,Delaware,6073264244.0,42.207535,-74.60113199999999,"(42.207535, -74.601132)"
332,HOBART FIRE DEPARTMENT,13018,80 CORNELL AVE PO BOX 237,HOBART,NY,13788,13,Delaware,6075389815.0,42.36078,-74.6398,"(42.36078, -74.6398)"
333,MARGARETVILLE FIRE DEPARTMENT,13019,77 CHURCH ST PO BOX 201,MARGARETVILLE,NY,12455,13,Delaware,9145862801.0,42.16697,-74.63316999999999,"(42.16697, -74.63317)"
334,MASONVILLE FIRE DEPARTMENT,13020,15488 ST HWY 8 PO BOX 362,MASONVILLE,NY,13804,13,Delaware,6072653524.0,42.2148,-75.3705,"(42.2148, -75.3705)"
336,PINDARS CORNERS FIRE DEPARTMENT,13022,8898 STATE HWAY 23,EST DAVENPORT,NY,13860,13,Delaware,6074332245.0,42.43835,-74.964964,"(42.43835, -74.964964)"
337,ROXBURY FIRE DEPARTMENT,13023,53613 ST HWY 30 PO BOX 514,ROXBURY,NY,12474,13,Delaware,6073263712.0,42.285014000000004,-74.564476,"(42.285014, -74.564476)"
338,SIDNEY FIRE DEPARTMENT,13024,74 RIVER STREET,SIDNEY,NY,13838,13,Delaware,6075638881.0,42.312478999999996,-75.399,"(42.312479, -75.399)"
339,SIDNEY CENTER FIRE DEPARTMENT,13025,10433 CO HWAY 23 PO BOX 302,SIDNEY CENTER,NY,13839,13,Delaware,6073697750.0,42.25079,-75.24795999999999,"(42.25079, -75.24796)"
340,SOUTH KORTRIGHT FIRE DEPT,13026,10668 COUNTY HIGHWAY 18,SOUTH KORTRIGHT,NY,13842,13,Delaware,6075389038.0,42.38792,-74.7337,"(42.38792, -74.7337)"
341,STAMFORD FIRE DEPARTMENT,13027,111 MAIN STREET,STAMFORD,NY,12167,13,Delaware,6076527241.0,42.40873,-74.617847,"(42.40873, -74.617847)"
343,TROUT CREEK FIRE DEPARTMENT,13029,8695 COUNTY HIGHWAY 27,TROUT CREEK,NY,13847,13,Delaware,6078656207.0,42.206253000000004,-75.280116,"(42.206253, -75.280116)"
344,WALTON FIRE DEPARTMENT,13030,59-61 WEST STREET,WALTON,NY,13856,13,Delaware,6078655229.0,42.174411,-75.139315,"(42.174411, -75.139315)"
345,AMENIA FIRE DEPARTMENT,14001,PO BOX 166  36 MECHANIC ST,AMENIA,NY,12501,14,Dutchess,8453738467.0,41.849019,-73.552878,"(41.849019, -73.552878)"
346,ARLINGTON FIRE DEPARTMENT,14002,11 BURNETT BOULEVARD,POUGHKEEPSIE,NY,12603,14,Dutchess,8454866300.0,41.69692,-73.888499,"(41.69692, -73.888499)"
347,BEACON FIRE DEPARTMENT,14003,13 SOUTH AVENUE,BEACON,NY,12508,14,Dutchess,8457650899.0,41.503023999999996,-73.966554,"(41.503024, -73.966554)"
348,BEEKMAN FIRE DEPARTMENT,14004,316 BEEKMAN-POUGHQUAG ROAD,POUGHQUAG,NY,12570,14,Dutchess,8457245280.0,41.611740999999995,-73.68468399999999,"(41.611741, -73.684684)"
349,CHELSEA FIRE DEPARTMENT,14005,16 LIBERTY ST PO BOX 61,CHELSEA,NY,12512,14,Dutchess,8458314434.0,41.552552,-73.96718,"(41.552552, -73.96718)"
350,DOVER FIRE DEPARTMENT,14006,3133 RTE 22 PO BOX 706,DOVER PLAINS,NY,12522,14,Dutchess,8458779381.0,41.7389,-73.580072,"(41.7389, -73.580072)"
351,EAST CLINTON FIRE DEPARTMENT,14007,PO BOX 1  9 FIREHOUSE RD,CLINTON CORNERS,NY,12514,14,Dutchess,8452663602.0,41.836940000000006,-73.79330999999999,"(41.83694, -73.79331)"
352,EAST FISHKILL FIRE DEPARTMENT,14008,2502 RT 52,HOPEWELL JUNCTION,NY,12533,14,Dutchess,8452261652.0,41.55341,-73.792171,"(41.55341, -73.792171)"
353,FAIRVIEW FIRE DEPARTMENT,14009,258 VIOLET AVENUE,POUGHKEEPSIE,NY,12601,14,Dutchess,8454527543.0,41.729749,-73.91045600000001,"(41.729749, -73.910456)"
354,FISHKILL FIRE DEPARTMENT,14010,1132 MAIN STREET,FISHKILL,NY,12524,14,Dutchess,8458966613.0,41.535695000000004,-73.90140799999999,"(41.535695, -73.901408)"
355,GLENHAM FIRE DEPARTMENT,14011,76 OLD GLENHAM RD POB 391,GLENHAM,NY,12527,14,Dutchess,8458312322.0,41.519729999999996,-73.93738,"(41.51973, -73.93738)"
356,HILLSIDE FIRE DEPARTMENT,14012,11 FOX HOLLOW RD,RHINEBECK,NY,12572,14,Dutchess,8458763307.0,41.892019,-73.910524,"(41.892019, -73.910524)"
357,HUGHSONVILLE FIRE DEPARTMENT,14013,88 OLD HOPEWLL RD PO BX 545,HUGHSONVILLE,NY,12537,14,Dutchess,8452973735.0,41.57888,-73.91096999999999,"(41.57888, -73.91097)"
358,HYDE PARK FIRE DEPARTMENT,14014,4306 ALBNY POST RDPOB 2007,HYDE PARK,NY,12538,14,Dutchess,8452295258.0,41.785563,-73.93349,"(41.785563, -73.93349)"
359,LA GRANGE FIRE DEPARTMENT,14015,504 FREEDOM PLAINS ROAD,POUGHKEEPSIE,NY,12603,14,Dutchess,8454524998.0,41.679333,-73.852999,"(41.679333, -73.852999)"
360,MILAN FIRE DEPARTMENT,14016,900 ROUTE 199,MILAN,NY,12571,14,Dutchess,8455329911.0,41.968903999999995,-73.807571,"(41.968904, -73.807571)"
361,MILLBROOK FIRE DEPARTMENT,14017,20 FRONT ST PO BOX 202,MILLBROOK,NY,12545,14,Dutchess,8456773871.0,41.783136,-73.695661,"(41.783136, -73.695661)"
362,MILLERTON FIRE DEPARTMENT,14018,24 CENTURY BLVD PO BOX 733,MILLERTON,NY,12546,14,Dutchess,9147893215.0,41.954122999999996,-73.507432,"(41.954123, -73.507432)"
363,NEW HACKENSACK FIRE DEPARTMENT,14019,217 MYERS CORNERS ROAD,WAPPINGERS FALLS,NY,12590,14,Dutchess,8452973897.0,41.606557,-73.871251,"(41.606557, -73.871251)"
364,NEW HAMBURG FIRE DEPARTMENT,14020,15 CHANNINGVILLE ROAD,WAPPINGERS FALLS,NY,12590,14,Dutchess,8454624952.0,41.592446,-73.941765,"(41.592446, -73.941765)"
365,PAWLING FIRE DEPARTMENT,14021,25 SOUTH STREET PO BOX 132,PAWLING,NY,12564,14,Dutchess,8458553630.0,41.552797,-73.602211,"(41.552797, -73.602211)"
366,PINE PLAINS FIRE DEPARTMENT,14022,7 LAKE ROAD PO BOX 668,PINE PLAINS,NY,12567,14,Dutchess,5183981311.0,41.9955,-73.65855,"(41.9955, -73.65855)"
367,PLEASANT VALLEY FIRE DEPARTMENT,14023,1619 MAIN ST PO BOX 417,PLEASANT VALLEY,NY,12569,14,Dutchess,8456359350.0,41.744648,-73.822924,"(41.744648, -73.822924)"
368,POUGHKEEPSIE FIRE DEPARTMENT,14024,18 NORTH CLOVER STREET,POUGHKEEPSIE,NY,12601,14,Dutchess,8454514080.0,41.706576,-73.93526700000001,"(41.706576, -73.935267)"
369,RED HOOK FIRE DEPARTMENT,14025,42 FIREHOUSE LA PO BOX 100,RED HOOK,NY,12571,14,Dutchess,8457588706.0,41.989379,-73.876699,"(41.989379, -73.876699)"
370,RHINEBECK FIRE DEPARTMENT,14026,76 MARKET STREET,RHINEBECK,NY,12572,14,Dutchess,8458762645.0,41.93349,-73.88073,"(41.93349, -73.88073)"
371,RHINECLIFF FIRE DEPARTMENT,14027,17 SHATZELL AVE PO BOX 6,RHINECLIFF,NY,12574,14,Dutchess,8458766149.0,41.91908,-73.95178,"(41.91908, -73.95178)"
372,ROOSEVELT FIRE DEPARTMENT,14028,1 ROOSEVELT RD PO BOX 394,HYDE PARK,NY,12538,14,Dutchess,8454546299.0,41.768335,-73.904958,"(41.768335, -73.904958)"
373,STAATSBURG FIRE DEPARTMENT,14029,49 OLD POST RD PO BOX 205,STAATSBURG,NY,12580,14,Dutchess,8456569767.0,41.847995000000004,-73.929022,"(41.847995, -73.929022)"
374,STANFORD FIRE CO 1,14030,6096 RTE 82,STANFORDVILLE,NY,12581,14,Dutchess,8458681313.0,41.924690000000005,-73.68508,"(41.92469, -73.68508)"
375,TIVOLI FIRE DEPARTMENT,14031,2 TIVOLI COMMONS PO BOX 486,TIVOLI,NY,12583,14,Dutchess,8457574445.0,42.059053000000006,-73.912002,"(42.059053, -73.912002)"
376,UNION VALE FIRE DEPT,14032,3373 RTE 82 PO BOX 21,VERBANK,NY,12585,14,Dutchess,8456779841.0,41.72417,-73.71129,"(41.72417, -73.71129)"
377,WASSAIC FIRE DEPARTMENT,14033,27 FIREHOUSE RD PO BOX 287,WASSAIC,NY,12592,14,Dutchess,8453738807.0,41.806743,-73.55905899999999,"(41.806743, -73.559059)"
378,WAPPINGERS FALLS FIRE DEPARTMENT,14034,2628 SOUTH AVENUE,WAPPINGERS FALLS,NY,12590,14,Dutchess,8452978773.0,41.596918,-73.917743,"(41.596918, -73.917743)"
379,WEST CLINTON FIRE DEPARTMENT,14035,219 HOLLOW ROAD,STAATSBURG,NY,12580-5607,14,Dutchess,8458894444.0,41.93349,-73.88073,"(41.93349, -73.88073)"
380,ROMBOUT FIRE DEPARTMENT,14037,901 MAIN ST PO BOX 401,FISHKILL,NY,12524,14,Dutchess,8458968620.0,41.527959,-73.913598,"(41.527959, -73.913598)"
381,DUTCHESS JUNCTION FIRE DEPT,14038,75 SLOCUM ROAD PO BOX 107,BEACON,NY,12508,14,Dutchess,8319430.0,41.506859999999996,-73.9611,"(41.50686, -73.9611)"
382,AKRON FIRE DEPARTMENT,15001,1 MAIN ST  PO BOX 1,AKRON,NY,14001,15,Erie,7165429091.0,43.020082,-78.502899,"(43.020082, -78.502899)"
383,ALDEN FIRE DEPARTMENT,15002,13336 BROADWAY,ALDEN,NY,14004,15,Erie,7169379216.0,42.900163,-78.490835,"(42.900163, -78.490835)"
384,ANGOLA FIRE DEPARTMENT,15003,41 COMMERCIAL ST PO BOX 303,ANGOLA,NY,14006,15,Erie,7165493022.0,42.637473,-79.028789,"(42.637473, -79.028789)"
385,ARMOR FIRE DEPARTMENT,15004,4932 CLARK ST  PO BOX 971,HAMBURG,NY,14075,15,Erie,7166499821.0,42.73975,-78.799379,"(42.73975, -78.799379)"
386,BELLEVUE FIRE DEPARTMENT,15005,511 COMO PARK BLVD,CHEEKTOWAGA,NY,14227,15,Erie,7166851680.0,42.892788,-78.740534,"(42.892788, -78.740534)"
387,BIG TREE FIRE DEPARTMENT,15006,4307 SOUTH PARK AVE,BLASDELL,NY,14219,15,Erie,7168256144.0,42.77952,-78.823893,"(42.77952, -78.823893)"
388,BLASDELL FIRE DEPARTMENT,15007,121 MIRIAM AVENUE,BLASDELL,NY,14219,15,Erie,7168250456.0,42.797996000000005,-78.829812,"(42.797996, -78.829812)"
389,BLOSSOM FIRE DEPARTMENT,15008,1000 N BLOSSOM ROAD,ELMA,NY,14059,15,Erie,7166682775.0,42.854064,-78.692408,"(42.854064, -78.692408)"
390,FONDA FIRE DEPARTMENT,29007,PO BOX 71,FONDA,NY,12068,29,Montgomery,5188531372.0,42.954518,-74.37366800000001,"(42.954518, -74.373668)"
391,BOSTON FIRE DEPARTMENT,15009,6746 MILL ST  PO BOX 357,BOSTON,NY,14025,15,Erie,7169416200.0,42.628713,-78.738227,"(42.628713, -78.738227)"
392,BOWMANSVILLE FIRE DEPARTMENT,15010,36 MAIN STREET PO BOX 137,BOWMANSVILLE,NY,14026,15,Erie,7166830910.0,42.942263,-78.685384,"(42.942263, -78.685384)"
393,BRANT VOLUNTEER FIRE DEPARTMENT,15011,1231 BRANT-FRNHM RD POB 184,BRANT,NY,14027,15,Erie,7165493691.0,42.58852,-79.01755,"(42.58852, -79.01755)"
394,BRIGHTON FIRE DEPARTMENT,15012,50 JAMAICA ROAD,TONAWANDA,NY,14150,15,Erie,7168376255.0,42.992963,-78.840565,"(42.992963, -78.840565)"
395,CLARENCE FIRE DEPARTMENT,15013,10355 MAIN ST PO BOX 340,CLARENCE,NY,14031,15,Erie,7167598919.0,42.979059,-78.603454,"(42.979059, -78.603454)"
396,CLARENCE CENTER FIRE DEPT,15014,9415 CLARNCE CTR RD POB 252,CLARENCE CENTER,NY,14032,15,Erie,7167412062.0,43.010738,-78.64012199999999,"(43.010738, -78.640122)"
397,CLEVELAND HILL FIRE DEPT #6,15015,440 CLEVELAND DRIVE,CHEEKTOWAGA,NY,14225,15,Erie,7168362161.0,42.944955,-78.78269,"(42.944955, -78.78269)"
398,COLDEN FIRE DEPARTMENT,15016,8448 GUTEKUNST RD POB 176,COLDEN,NY,14033,15,Erie,7169415353.0,42.652475,-78.685967,"(42.652475, -78.685967)"
399,COLLINS FIRE DEPARTMENT,15017,2365 MAIN ST PO BOX 361,COLLINS,NY,14034,15,Erie,7165323918.0,42.496486,-78.91656400000001,"(42.496486, -78.916564)"
400,COLLINS CENTER FIRE DEPARTMENT,15018,3514 MAIN ST  PO BOX 461,COLLINS CENTER,NY,14035,15,Erie,7165323300.0,42.494194,-78.85550400000001,"(42.494194, -78.855504)"
401,CRITTENDEN FIRE DEPARTMENT,15019,13415 GENESEE ST PO BOX 120,CRITTENDEN,NY,14038,15,Erie,7169379166.0,42.95968,-78.4077,"(42.95968, -78.4077)"
402,DEPEW FIRE DEPARTMENT,15020,85 MANITOU ST  PO BOX 21,DEPEW,NY,14043,15,Erie,7166839803.0,42.904778,-78.68627,"(42.904778, -78.68627)"
403,DOYLE HOSE FIRE DEPARTMENT,15021,2199 WILLIAM STREET,CHEEKTOWAGA,NY,14206,15,Erie,7168246188.0,42.874711,-78.796922,"(42.874711, -78.796922)"
404,EAST AURORA FIRE DEPARTMENT,15023,575 OAKWOOD AVENUE,EAST AURORA,NY,14052,15,Erie,7166528200.0,42.765575,-78.613715,"(42.765575, -78.613715)"
405,EAST CONCORD FIRE DEPARTMENT,15024,9413 GENESEE ROAD,EAST CONCORD,NY,14055,15,Erie,7165924567.0,42.552102000000005,-78.644285,"(42.552102, -78.644285)"
406,EAST EDEN FIRE DEPARTMENT,15025,8097 EAST EDEN ROAD,EDEN,NY,14057,15,Erie,7169923160.0,42.666021,-78.827425,"(42.666021, -78.827425)"
407,EAST SENECA FIRE DEPARTMENT,15026,100 LEIN ROAD,WEST SENECA,NY,14224,15,Erie,7166745107.0,42.838039,-78.711956,"(42.838039, -78.711956)"
408,EDEN FIRE DEPARTMENT,15027,2791 E CHURCH ST PO BOX 85,EDEN,NY,14057,15,Erie,7169924062.0,42.65234,-78.895966,"(42.65234, -78.895966)"
409,EGGERTSVILLE FIRE DEPARTMENT,15028,1880 EGGERT ROAD,BUFFALO,NY,14226,15,Erie,7168368942.0,42.976993,-78.81179399999999,"(42.976993, -78.811794)"
410,ELLICOTT CREEK FIRE DEPARTMENT,15029,45 SOUTH ELLICOTTT CREEK RD,AMHERST,NY,14228,15,Erie,7166917439.0,43.024136999999996,-78.820622,"(43.024137, -78.820622)"
411,ELLWOOD FIRE DEPARTMENT,15030,1000 ENGLEWOOD AVE,KENMORE,NY,14223,15,Erie,7168779524.0,42.970793,-78.850989,"(42.970793, -78.850989)"
412,ELMA FIRE DEPARTMENT,15031,2945 BOWEN RD  PO BOX 3,ELMA,NY,14059,15,Erie,7166521676.0,42.84961,-78.640196,"(42.84961, -78.640196)"
413,EVANS CENTER FIRE DEPARTMENT,15032,8298 ERIE ROAD PO BOX 193,ANGOLA,NY,14006,15,Erie,7165491221.0,42.637029999999996,-79.04899,"(42.63703, -79.04899)"
414,FARNHAM FIRE DEPARTMENT,15033,526 COMMERCIAL ST,FARNHAM,NY,14061,15,Erie,7165495489.0,42.59301,-79.082918,"(42.59301, -79.082918)"
415,FORKS HOSE FIRE DEPARTMENT,15034,3330 BROADWAY,CHEEKTOWAGA,NY,14227,15,Erie,7166838668.0,42.903873,-78.751995,"(42.903873, -78.751995)"
416,GETZVILLE FIRE DEPARTMENT,15035,630 DODGE RD  PO BOX 111,GETZVILLE,NY,14068,15,Erie,7166880116.0,43.024255,-78.769277,"(43.024255, -78.769277)"
417,GRAND ISLAND FIRE DEPARTMENT,15037,2275 BASELINE ROAD,GRAND ISLAND,NY,14072,15,Erie,7167734334.0,43.023920000000004,-78.965687,"(43.02392, -78.965687)"
418,HAMBURG FIRE DEPARTMENT,15038,301 UNION STREET PO BOX 82,HAMBURG,NY,14075,15,Erie,7166491753.0,42.71743,-78.839005,"(42.71743, -78.839005)"
419,HARRIS HILL FIRE DEPARTMENT,15039,8630 MAIN STREET,WILLIAMSVILLE,NY,14221,15,Erie,7166321199.0,42.965329,-78.67161999999999,"(42.965329, -78.67162)"
420,HOLLAND FIRE DEPARTMENT,15043,49 N MAIN STREET PO BOX 610,HOLLAND,NY,14080,15,Erie,7165379568.0,42.641857,-78.54300500000001,"(42.641857, -78.543005)"
421,HUTCHINSON HOSE DEPARTMENT,15044,5565 MAIN STREET,WILLIAMSVILLE,NY,14221,15,Erie,7166324070.0,42.96257,-78.745899,"(42.96257, -78.745899)"
422,HYVIEW FIRE DEPARTMENT,15045,8 AIRPORT DRIVE,DEPEW,NY,14043,15,Erie,7166842371.0,42.924337,-78.72110500000001,"(42.924337, -78.721105)"
423,JAMISON ROAD FIRE DEPARTMENT,15046,1071 JAMISON ROAD,ELMA,NY,14059,15,Erie,7166526760.0,42.805051,-78.622194,"(42.805051, -78.622194)"
424,KENILWORTH FIRE DEPARTMENT,15047,84 HAWTHORNE AVE,BUFFALO,NY,14223,15,Erie,7168340138.0,42.960726,-78.8261,"(42.960726, -78.8261)"
425,KENMORE FIRE DEPT,15048,16 NASH ROAD,KENMORE,NY,14217,15,Erie,7168753274.0,42.965344,-78.869445,"(42.965344, -78.869445)"
426,LACKAWANNA FIRE DEPARTMENT,15049,1630 ABBOTT ROAD,LACKAWANNA,NY,14218,15,Erie,7168276436.0,42.820526,-78.801938,"(42.820526, -78.801938)"
427,LAKE ERIE BEACH FIRE DEPT,15050,9483 LAKE SHORE ROAD,ANGOLA,NY,14006,15,Erie,7165491122.0,42.626907,-79.09018,"(42.626907, -79.09018)"
428,LAKE SHORE FIRE DEPARTMENT,15051,4591 LAKE SHORE RD,HAMBURG,NY,14075,15,Erie,7166273522.0,42.758676,-78.883954,"(42.758676, -78.883954)"
429,LAKE VIEW FIRE DEPARTMENT,15052,2005 LAKE VIEW RD PO BX 345,LAKE VIEW,NY,14085,15,Erie,7166277941.0,42.724309999999996,-78.9329,"(42.72431, -78.9329)"
430,LANCASTER FIRE DEPARTMENT,15053,5423 BROADWAY  PO BOX 15,LANCASTER,NY,14086,15,Erie,7166831901.0,42.900296000000004,-78.67008,"(42.900296, -78.67008)"
431,LANGFORD NEW OREGON FIRE DEPT,15054,3901 LANGFORD ROAD,NORTH COLLINS,NY,14111,15,Erie,7163373440.0,42.587415,-78.839489,"(42.587415, -78.839489)"
432,LAWTONS FIRE DEPARTMENT,15055,GOWANDA STATE RD  PO BOX 84,LAWTONS,NY,14091,15,Erie,7163372555.0,42.539001,-78.930637,"(42.539001, -78.930637)"
433,MAIN TRANSIT FIRE DEPARTMENT,15056,6777 MAIN STREET,WILLIAMSVILLE,NY,14231,15,Erie,7166329710.0,42.965346999999994,-78.701285,"(42.965347, -78.701285)"
434,MARILLA FIRE DEPARTMENT,15057,1950 WEST AVE PO BOX 124,MARILLA,NY,14102,15,Erie,7166521080.0,42.84178,-78.55530999999999,"(42.84178, -78.55531)"
435,CHAFFEE-SARDINIA FIRE DEPT,15058,13670 BRIGGS ST  PO BOX 203,CHAFFEE,NY,14030,15,Erie,7164965150.0,42.55167,-78.51108,"(42.55167, -78.51108)"
436,MILLGROVE FIRE DEPARTMENT,15059,11621 GENESEE ST,ALDEN,NY,14004,15,Erie,7169377612.0,42.943625,-78.55488000000001,"(42.943625, -78.55488)"
437,MORTONS CORNERS FIRE DEPT,15060,RD #1 MORTONS CORNERS ROAD,SPRINGVILLE,NY,14141,15,Erie,7165924665.0,42.5242,-78.67118,"(42.5242, -78.67118)"
438,NEWSTEAD FIRE DEPARTMENT,15061,5691 CUMMINGS RD PO BOX 386,AKRON,NY,14001,15,Erie,7165425337.0,43.001467,-78.517085,"(43.001467, -78.517085)"
439,NEWTON ABBOTT FIRE DEPARTMENT,15062,3426 ABBOTT RD PO BOX 2001,BLASDELL,NY,14219,15,Erie,7168253663.0,42.789609999999996,-78.82382,"(42.78961, -78.82382)"
440,NORTH AMHERST FIRE DEPARTMENT,15063,2200 TONAWANDA CREEK ROAD,AMHERST,NY,14228,15,Erie,7166917131.0,43.068073,-78.770753,"(43.068073, -78.770753)"
441,NORTH BAILEY FIRE DEPARTMENT,15064,966 SWEET HOME ROAD,AMHERST,NY,14226,15,Erie,7168369571.0,42.989218,-78.805681,"(42.989218, -78.805681)"
442,NORTH BOSTON FIRE DEPARTMENT,15065,7223 BOSTON STATE RD BX 124,NORTH BOSTON,NY,14110,15,Erie,7166490974.0,42.67352,-78.75503,"(42.67352, -78.75503)"
443,NORTH COLLINS FIRE DEPARTMENT,15066,10543 MAIN ST PO BOX 448,NORTH COLLINS,NY,14111,15,Erie,7163373294.0,42.594714,-78.940859,"(42.594714, -78.940859)"
444,NORTH EVANS FIRE DEPARTMENT,15067,6980 VARSAILLES RD PO BX 92,NORTH EVANS,NY,14112,15,Erie,7166273410.0,42.68528,-78.94228000000001,"(42.68528, -78.94228)"
445,ORCHARD PARK FIRE DEPARTMENT,15068,30 SCHOOL ST PO BOX 1140,ORCHARD PARK,NY,14127,15,Erie,7166621127.0,42.67352,-78.75503,"(42.67352, -78.75503)"
446,PATCHIN FIRE DEPARTMENT,15069,8333 BOSTON STATE RD BX 173,BOSTON,NY,14025,15,Erie,7169413555.0,42.657305,-78.747221,"(42.657305, -78.747221)"
447,PINE HILL HOSE FIRE DEPT,15070,2435 GENESEE STREET,CHEEKTOWAGA,NY,14225,15,Erie,7168968690.0,42.919998,-78.792763,"(42.919998, -78.792763)"
448,RESCUE HOSE FIRE DEPARTMENT,15071,20 PINE RIDGE ROAD,CHEEKTOWAGA,NY,14211,15,Erie,7168971168.0,42.907621,-78.796433,"(42.907621, -78.796433)"
449,RESERVE HOSE FIRE DEPARTMENT,15072,2400 BERG ROAD,WEST SENECA,NY,14218,15,Erie,7166751122.0,42.809459999999994,-78.76320600000001,"(42.80946, -78.763206)"
450,RIVER ROAD FIRE DEPARTMENT,15073,39 KAUFMAN AVENUE,TONAWANDA,NY,14150,15,Erie,7168749140.0,42.974292999999996,-78.928288,"(42.974293, -78.928288)"
451,SCRANTON FIRE DEPARTMENT,15074,5395 SCRANTON ROAD,HAMBURG,NY,14075,15,Erie,7166484563.0,42.740062,-78.831937,"(42.740062, -78.831937)"
452,SENECA HOSE FIRE DEPARTMENT,15075,2801 SENECA STREET,WEST SENECA,NY,14224,15,Erie,7168255511.0,42.842496999999995,-78.788963,"(42.842497, -78.788963)"
453,SHERIDAN PARK FIRE DEPARTMENT,15076,738 SHERIDAN DRIVE,TONAWANDA,NY,14150,15,Erie,7168731111.0,42.978902000000005,-78.904686,"(42.978902, -78.904686)"
454,SLOAN ACTIVE HOSE FIRE DEPT,15077,55 GATES AVENUE,SLOAN,NY,14212,15,Erie,7168971564.0,42.826456,-78.848579,"(42.826456, -78.848579)"
455,SNYDER FIRE DEPARTMENT,15078,4531 MAIN STREET,SNYDER,NY,14226,15,Erie,7168393440.0,42.962894,-78.782638,"(42.962894, -78.782638)"
456,SOUTH LINE FIRE DEPARTMENT,15079,1049 FRENCH ROAD,CHEEKTOWAGA,NY,14227,15,Erie,7166681232.0,42.867754,-78.713493,"(42.867754, -78.713493)"
457,SOUTH WALES FIRE DEPARTMENT,15080,6406 OLEAN RD  PO BOX 185,SOUTH WALES,NY,14139,15,Erie,7166526659.0,42.710299,-78.578126,"(42.710299, -78.578126)"
458,SPRING BROOK FIRE DEPARTMENT,15081,70 POUND RD  PO BOX 310,SPRING BROOK,NY,14140,15,Erie,7166522670.0,42.823391,-78.679874,"(42.823391, -78.679874)"
459,SPRINGVILLE FIRE DEPARTMENT,15082,405 WEST MAIN ST PO BOX 12,SPRINGVILLE,NY,14141,15,Erie,7165924487.0,42.5242,-78.67118,"(42.5242, -78.67118)"
460,SWORMVILLE FIRE DEPARTMENT,15083,6971 TRANSIT RD PO BOX 707,EAST AMHERST,NY,14051,15,Erie,7166887055.0,43.038990999999996,-78.696845,"(43.038991, -78.696845)"
461,TONAWANDA FIRE DEPT (CITY),15084,44 WILLIAM STREET,TONAWANDA,NY,14150,15,Erie,7166921275.0,43.017259,-78.876274,"(43.017259, -78.876274)"
462,TOWN LINE FIRE DEPARTMENT,15085,6507 BROADWAY,LANCASTER,NY,14086,15,Erie,7166830385.0,42.890749,-78.58022,"(42.890749, -78.58022)"
463,EAST AMHERST FIRE DEPARTMENT,15086,9100 TRANSIT RD PO BOX 55,EAST AMHERST,NY,14051,15,Erie,7166882121.0,43.016639,-78.69706500000001,"(43.016639, -78.697065)"
464,TWIN DISTRICT FIRE DEPARTMENT,15087,4999 WILLIAM ST PO BOX 406,LANCASTER,NY,14086,15,Erie,7166813118.0,42.880758,-78.670367,"(42.880758, -78.670367)"
465,U-CREST FIRE DEPARTMENT,15088,255 CLOVER PLACE,CHEEKTOWAGA,NY,14225,15,Erie,7166342633.0,42.923394,-78.755049,"(42.923394, -78.755049)"
466,UNION FIRE DEPARTMENT,15089,2055 UNION ROAD,WEST SENECA,NY,14224,15,Erie,7166682828.0,42.85623,-78.75457800000001,"(42.85623, -78.754578)"
467,VIGILANT FIRE DEPARTMENT,15090,666 MAIN STREET,WEST SENECA,NY,14224,15,Erie,7166741453.0,42.834015,-78.750567,"(42.834015, -78.750567)"
468,WALES CENTER FIRE DEPARTMENT,15091,12300 BIG TREE RD  BOX 124,WALES CENTER,NY,14169,15,Erie,7166521051.0,42.76789,-78.52194,"(42.76789, -78.52194)"
469,WEST FALLS FIRE DEPARTMENT,15092,1864 DAVIS RD PO BOX 140,WEST FALLS,NY,14170,15,Erie,7166521353.0,42.704738,-78.681136,"(42.704738, -78.681136)"
470,WINCHESTER FIRE DEPARTMENT,15093,514 HARLEM ROAD,WEST SENECA,NY,14224,15,Erie,7168242565.0,42.856749,-78.787801,"(42.856749, -78.787801)"
471,WOODLAWN FIRE DEPARTMENT,15095,S-3281 LAKE SHORE ROAD,BLASDELL,NY,14219,15,Erie,7168242284.0,42.796796,-78.846715,"(42.796796, -78.846715)"
473,BUFFALO FIRE DEPARTMENT,15100,195 COURT STREET,BUFFALO,NY,14202,15,Erie,7168515333.0,42.887005,-78.881198,"(42.887005, -78.881198)"
474,AUSABLE FORKS FIRE DEPARTMENT,16001,29 SCHOOL ST PO BOX 785,AUSABLE FORKS,NY,12912,16,Essex,5186475582.0,44.48598,-73.7599,"(44.48598, -73.7599)"
475,BLOOMINGDALE FIRE DEPARTMENT,16002,1635 STATE RT 3 PO BOX 226,BLOOMINGDALE,NY,12913,16,Essex,5188911770.0,44.39829,-74.07401999999999,"(44.39829, -74.07402)"
476,CHILSON FIRE DEPARTMENT,16003,60 PUTTS POND ROAD,TICONDEROGA,NY,12883,16,Essex,5185852510.0,43.874179999999996,-73.530618,"(43.87418, -73.530618)"
477,CROWN POINT FIRE DEPARTMENT,16004,2764 MAIN ST,CROWN POINT,NY,12928,16,Essex,5185973211.0,43.95112,-73.43033,"(43.95112, -73.43033)"
478,ELIZABETHTOWN FIRE DEPARTMENT,16005,22 WOODRUFF ST PO BOX 457,ELIZABETHTOWN,NY,12932,16,Essex,5188739944.0,44.214896,-73.58489300000001,"(44.214896, -73.584893)"
479,ESSEX FIRE DEPARTMENT NO. 1,16006,RTE 22W BOX 58,ESSEX,NY,12936,16,Essex,5189637619.0,44.23855,-73.40427,"(44.23855, -73.40427)"
480,JAY FIRE DEPARTMENT,16007,PO BOX 358,JAY,NY,12941,16,Essex,5189462552.0,44.389656,-73.710402,"(44.389656, -73.710402)"
481,KEENE FIRE DEPARTMENT,16008,1 EAST HILL ROAD BOX 136,KEENE,NY,12942,16,Essex,5185764301.0,44.2529,-73.78775999999999,"(44.2529, -73.78776)"
482,KEENE VALLEY FIRE DEPARTMENT,16009,"PO BOX 699, MARKET STREET",KEENE VALLEY,NY,12943,16,Essex,5185764727.0,44.189522,-73.79019,"(44.189522, -73.79019)"
483,LAKE PLACID FIRE DEPARTMENT,16011,RIVER STREET EXT PO BOX 569,LAKE PLACID,NY,12946,16,Essex,5185233211.0,44.269991999999995,-73.99269,"(44.269992, -73.99269)"
484,LEWIS FIRE DEPARTMENT,16012,18 FIRE HOUSE LA PO BOX 23,LEWIS,NY,12950,16,Essex,5188732232.0,44.30939,-73.57114,"(44.30939, -73.57114)"
485,MINEVILLE-WITHERBEE FIRE DEPT,16013,112 RAYMOND WRIGHT AVENUE,MINEVILLE,NY,12956,16,Essex,5189427126.0,44.087461,-73.52484799999999,"(44.087461, -73.524848)"
486,MORIAH FIRE DEPARTMENT,16014,630 TARBELL HILL ROAD,MORIAH,NY,12960,16,Essex,5185463749.0,44.046222,-73.50399300000001,"(44.046222, -73.503993)"
487,NEWCOMB FIRE DEPARTMENT,16015,RT 28 N,NEWCOMB,NY,12852,16,Essex,5185823093.0,43.969394,-74.158971,"(43.969394, -74.158971)"
488,NORTH HUDSON FIRE DEPARTMENT,16016,3034 US ROUTE 9,NORTH HUDSON,NY,12855,16,Essex,5185327093.0,43.960460999999995,-73.723777,"(43.960461, -73.723777)"
489,PORT HENRY FIRE DEPARTMENT,16018,14 CHURCH ST  PO BOX 182,PORT HENRY,NY,12974,16,Essex,5185467771.0,44.047595,-73.461265,"(44.047595, -73.461265)"
490,SCHROON LAKE FIRE DEPARTMENT,16020,ROUTE 9 POB 456,SCHROON LAKE,NY,12870,16,Essex,5185327477.0,43.842236,-73.766577,"(43.842236, -73.766577)"
491,TICONDEROGA FIRE DEPARTMENT,16021,PO BOX 367 MONTCALM STREET,TICONDEROGA,NY,12883,16,Essex,5185857771.0,43.848156,-73.429029,"(43.848156, -73.429029)"
492,UPPER JAY FIRE DEPARTMENT,16022,ROUTE 9N HCR BOX 38,UPPER JAY,NY,12987,16,Essex,5189467022.0,44.33509,-73.78671,"(44.33509, -73.78671)"
493,WESTPORT FIRE DEPARTMENT,16023,PO BOX 226,WESTPORT,NY,12993,16,Essex,5189624701.0,44.186946,-73.43573,"(44.186946, -73.43573)"
494,WHALLONSBURG FIRE DEPARTMENT,16025,"RT 22, BOX 399, RR1",ESSEX,NY,12936,16,Essex,5189634027.0,44.23855,-73.40427,"(44.23855, -73.40427)"
495,WILLSBORO/REBER FIRE DEPT,16026,17 FARRELL ROAD PO BOX 332,WILLSBORO,NY,12996,16,Essex,5189638316.0,44.374604999999995,-73.394636,"(44.374605, -73.394636)"
496,WILMINGTON FIRE DEPARTMENT,16027,1197 HASELTON RD PO BOX 425,WILMINGTON,NY,12997,16,Essex,5189467187.0,44.389899,-73.813516,"(44.389899, -73.813516)"
497,MINERVA FIRE DEPARTMENT,16028,ROUTE 28N PO BOX 102,OLMSTEDVILLE,NY,12857,16,Essex,5182513333.0,43.780381,-73.971037,"(43.780381, -73.971037)"
498,BANGOR FIRE DEPARTMENT,17001,2265 STATE RTE 11,NORTH BANGOR,NY,12966,17,Franklin,5184832780.0,44.0355,-73.50323,"(44.0355, -73.50323)"
499,BOMBAY FIRE DEPARTMENT,17002,1856 STATE RTE 95 PO BOX 27,BOMBAY,NY,12914,17,Franklin,5183584502.0,44.928979999999996,-74.60753000000001,"(44.92898, -74.60753)"
500,BRUSHTON FIRE DEPARTMENT,17003,816 COUNTY RD 7 PO BOX 607,BRUSHTON,NY,12916,17,Franklin,5185296007.0,44.826606,-74.521276,"(44.826606, -74.521276)"
501,BURKE FIRE DEPARTMENT,17004,1041 E MAIN ST  PO BOX 40,BURKE,NY,12917,17,Franklin,5184832787.0,44.904644,-74.168708,"(44.904644, -74.168708)"
502,CHATEAUGAY FIRE DEPARTMENT,17005,2 LAKE STREET PO BOX 911,CHATEAUGAY,NY,12920,17,Franklin,5184973135.0,44.923109000000004,-74.079339,"(44.923109, -74.079339)"
503,CONSTABLE FIRE DEPARTMENT,17006,1136 STATE RT 122 PO BX 151,CONSTABLE,NY,12926,17,Franklin,5184835908.0,44.929241999999995,-74.297668,"(44.929242, -74.297668)"
504,DICKINSON CENTER FIRE DEPT,17007,7 CHURCH STREET  PO BOX 88,DICKINSON CENTER,NY,12930,17,Franklin,5188569515.0,44.714197,-74.55287,"(44.714197, -74.55287)"
505,FORT COVINGTON FIRE DEPARTMENT,17008,2454 STATE RT 37 PO BOX 447,FORT COVINGTON,NY,12937,17,Franklin,5183582990.0,44.987784999999995,-74.498327,"(44.987785, -74.498327)"
506,HOGANSBURG FIRE DEPARTMENT,17009,818 STATE RT 37 PO BOX 426,HOGANSBURG,NY,13655,17,Franklin,5183582161.0,44.97637,-74.65243000000001,"(44.97637, -74.65243)"
507,MALONE (CALL FIREMAN) FIRE DEPT,17010,37 FINNY BLVD PO BOX 412,MALONE,NY,12953,17,Franklin,5184834853.0,44.847719,-74.300844,"(44.847719, -74.300844)"
508,MOIRA FIRE DEPARTMENT,17012,2340 COUNTY RT 5 PO BOX 122,MOIRA,NY,12957,17,Franklin,5185296010.0,44.81564,-74.56560999999999,"(44.81564, -74.56561)"
509,OWLS HEAD-MT VIEW FIRE DEPT,17013,46 RAGGED LAKE ROAD,OWLS HEAD,NY,12969,17,Franklin,5184837094.0,44.733522,-74.170683,"(44.733522, -74.170683)"
510,SARANAC LAKE FIRE DEPT,17014,100 BROADWAY PO BOX 509,SARANAC LAKE,NY,12983,17,Franklin,5188912333.0,44.329681,-74.133813,"(44.329681, -74.133813)"
511,ST REGIS FALLS FIRE DEPT,17015,PO BOX 177,ST REGIS FALLS,NY,12980,17,Franklin,5188569459.0,44.673379,-74.544539,"(44.673379, -74.544539)"
512,TUPPER LAKE FIRE DEPARTMENT,17016,21 HIGH STREET  PO BOX 849,TUPPER LAKE,NY,12986,17,Franklin,5183593530.0,44.222532,-74.464409,"(44.222532, -74.464409)"
513,WESTVILLE FIRE DEPARTMENT,17017,3891 STATE ROUTE 37,CONSTABLE,NY,12926,17,Franklin,5183584450.0,44.942971,-74.39440400000001,"(44.942971, -74.394404)"
514,PAUL SMITH-GABRIELS FIRE DEPT,17018,68 STATE RTE 86  PO BOX 145,GABRIELS,NY,12939,17,Franklin,5183273600.0,44.42558,-74.16809,"(44.42558, -74.16809)"
515,DUANE FIRE DEPARTMENT,17019,172 COUNTY ROUTE 26,MALONE,NY,12953,17,Franklin,5184830386.0,44.65922,-74.26617900000001,"(44.65922, -74.266179)"
516,BERKSHIRE FIRE DEPARTMENT,18001,320 STEELE AVENUE EXT,GLOVERSVILLE,NY,12078,18,Fulton,5187251612.0,43.05696,-74.34146,"(43.05696, -74.34146)"
517,BROADALBIN FIRE DEPARTMENT,18002,PO BOX 126,BROADALBIN,NY,12025,18,Fulton,5188833611.0,43.058493,-74.188601,"(43.058493, -74.188601)"
518,CAROGA LAKE FIRE DEPARTMENT,18003,PO BOX 882,CAROGA LAKE,NY,12032,18,Fulton,5188354137.0,43.22482,-74.51751999999999,"(43.22482, -74.51752)"
519,EPHRATAH FIRE DEPARTMENT,18004,4305 ST HWY 10,ST JOHNSVILLE,NY,13452,18,Fulton,5189933182.0,43.03743,-74.66391,"(43.03743, -74.66391)"
520,GLOVERSVILLE FIRE DEPARTMENT,18005,5 FRONTAGE ROAD,GLOVERSVILLE,NY,12078,18,Fulton,5187253125.0,43.051136,-74.348805,"(43.051136, -74.348805)"
521,HILL TOP FIRE DEPARTMENT,18006,7770 ST HWY 29,DOLGEVILLE,NY,13329,18,Fulton,3154293211.0,43.1007,-74.77266999999999,"(43.1007, -74.77267)"
522,JOHNSTOWN FIRE DEPARTMENT,18007,244 NORTH PERRY STREET,JOHNSTOWN,NY,12095,18,Fulton,5187364079.0,43.01461,-74.370377,"(43.01461, -74.370377)"
523,MAYFIELD FIRE DEPARTMENT,18008,PO BOX 722,MAYFIELD,NY,12117,18,Fulton,5186615611.0,43.101903,-74.26204399999999,"(43.101903, -74.262044)"
524,MECO FIRE DEPARTMENT,18009,1600 STATE HWAY 29A,GLOVERSVILLE,NY,12078,18,Fulton,5187251173.0,43.054883000000004,-74.378957,"(43.054883, -74.378957)"
525,NORTHVILLE FIRE DEPARTMENT,18010,PO BOX 756,NORTHVILLE,NY,12134,18,Fulton,5188638791.0,43.225192,-74.171495,"(43.225192, -74.171495)"
526,OPPENHEIM CENTER FIRE DEPARTMENT,18011,6786 STATE HWY 29,ST JOHNSVILLE,NY,13452,18,Fulton,5185682036.0,43.03743,-74.66391,"(43.03743, -74.66391)"
527,PERTH FIRE DEPARTMENT,18012,4080 ST HWY 30,AMSTERDAM,NY,12010,18,Fulton,5188838238.0,42.953559999999996,-74.17751,"(42.95356, -74.17751)"
528,PLEASANT SQUARE FIRE DEPARTMENT,18013,1208 CO HWY 122,GLOVERSVILLE,NY,12078,18,Fulton,3157254626.0,43.077022,-74.329203,"(43.077022, -74.329203)"
529,ROCKWOOD GAROGA LASSELLSVILLE FD,18014,172 CHURCH STREET,ST JOHNSVILLE,NY,13452,18,Fulton,5187627444.0,43.048973,-74.600154,"(43.048973, -74.600154)"
530,SAMMONSVILLE FIRE DEPARTMENT,18015,1362 STATE HIGHWAY 67,JOHNSTOWN,NY,12095,18,Fulton,5187621404.0,43.006624,-74.430789,"(43.006624, -74.430789)"
531,SIR WILLIAM JOHNSON FIRE DEPT,18016,224 CO HWY 131A,JOHNSTOWN,NY,12095,18,Fulton,5187621220.0,43.022279,-74.407646,"(43.022279, -74.407646)"
532,STRATFORD FIRE DEPARTMENT,18017,COUNTY ROAD 104,STRATFORD,NY,13470,18,Fulton,3154293607.0,43.19708,-74.65371999999999,"(43.19708, -74.65372)"
533,ALABAMA FIRE DEPARTMENT,19001,PO BOX 798,BASOM,NY,14013,19,Genesee,5859485760.0,43.07737,-78.39152,"(43.07737, -78.39152)"
534,ALEXANDER FIRE DEPARTMENT,19002,PO BOX 152,ALEXANDER,NY,14005,19,Genesee,5855912411.0,42.904573,-78.253454,"(42.904573, -78.253454)"
535,BATAVIA FIRE DEPT (CITY),19003,18 EVANS STREET,BATAVIA,NY,14020,19,Genesee,5853456375.0,42.995803,-78.186787,"(42.995803, -78.186787)"
536,BATAVIA FIRE DEPT (TOWN),19004,LEWISTON ROAD PO BOX 417,BATAVIA,NY,14020,19,Genesee,5853443284.0,43.007676000000004,-78.20707800000001,"(43.007676, -78.207078)"
537,BERGEN FIRE DEPARTMENT,19005,10 HUNTER ST PO BOX 428,BERGEN,NY,14416,19,Genesee,5854942100.0,43.088915,-77.942356,"(43.088915, -77.942356)"
538,BETHANY FIRE DEPARTMENT,19006,5253 OLD TELEPHONE ROAD,EAST BETHANY,NY,14054,19,Genesee,5853440535.0,42.903999,-78.130628,"(42.903999, -78.130628)"
539,BYRON FIRE DEPARTMENT,19007,6157 E MAIN ST PO BOX 210,BYRON,NY,14422,19,Genesee,5855482206.0,43.079668,-78.062161,"(43.079668, -78.062161)"
540,CORFU FIRE DEPARTMENT,19008,116 E MAIN ST PO BOX 134,CORFU,NY,14036,19,Genesee,5855993618.0,42.96277,-78.39110699999999,"(42.96277, -78.391107)"
541,DARIEN CENTER FIRE DEPARTMENT,19009,10537 ALLEGHANY RD,DARIEN,NY,14040,19,Genesee,5855479586.0,42.90119,-78.3874,"(42.90119, -78.3874)"
542,EAST PEMBROKE FIRE DEPARTMENT,19010,2623 MAIN RD PO BOX 44,EAST PEMBROKE,NY,14056,19,Genesee,5857629044.0,42.995849,-78.30763,"(42.995849, -78.30763)"
543,ELBA FIRE DEPARTMENT,19011,4 S MAIN ST PO BOX 58,ELBA,NY,14058,19,Genesee,5857579011.0,43.07027,-78.18809499999999,"(43.07027, -78.188095)"
544,LEROY FIRE DEPARTMENT,19012,4 CLAY STREET,LEROY,NY,14482,19,Genesee,5857682527.0,42.977451,-77.99238000000001,"(42.977451, -77.99238)"
545,OAKFIELD FIRE DEPARTMENT,19013,20 ALBERT ST PO BOX 184,OAKFIELD,NY,14125,19,Genesee,5859485810.0,43.06812,-78.276445,"(43.06812, -78.276445)"
546,PAVILION FIRE DEPARTMENT,19014,11302 S LAKE RD PO BOX 156,PAVILION,NY,14525,19,Genesee,5855843232.0,42.87462,-78.02323,"(42.87462, -78.02323)"
547,PEMBROKE FIRE DEPARTMENT,19015,630 MAIN ROAD,CORFU,NY,14036,19,Genesee,5855993521.0,42.998489,-78.438627,"(42.998489, -78.438627)"
548,SOUTH BYRON FIRE DEPARTMENT,19016,7389 ROUTE 237 PO BOX 22,SOUTH BYRON,NY,14557,19,Genesee,5855482451.0,43.048120000000004,-78.06573,"(43.04812, -78.06573)"
549,STAFFORD FIRE DEPARTMENT,19017,6153 MAIN ROAD PO BOX 56,STAFFORD,NY,14143,19,Genesee,5853450938.0,42.981944,-78.075399,"(42.981944, -78.075399)"
550,INDIAN FALLS FIRE DEPT,19018,8030 ALLEGHENY ROAD,CORFU,NY,14036,19,Genesee,5857628887.0,43.028914,-78.396936,"(43.028914, -78.396936)"
551,ASHLAND FIRE DEPARTMENT,20001,RD 1 BOX 49A,ASHLAND,NY,12407,20,Greene,5187343006.0,42.23923,-74.31383000000001,"(42.23923, -74.31383)"
552,ATHENS FIRE DEPARTMENT,20002,39 THIRD ST PO BOX 207,ATHENS,NY,12015,20,Greene,5189451597.0,42.28709,-73.83206,"(42.28709, -73.83206)"
553,CATSKILL FIRE DEPARTMENT,20003,422 MAIN STREET,CATSKILL,NY,12414,20,Greene,5189432520.0,42.220440999999994,-73.86591800000001,"(42.220441, -73.865918)"
554,COXSACKIE FIRE DEPARTMENT,20005,119 MANSION STREET,COXSACKIE,NY,12051,20,Greene,5184423495.0,42.355940000000004,-73.808474,"(42.35594, -73.808474)"
555,H D LANE FIRE DEPARTMENT,20006,26 BEECHER RD PO BOX 26,LANESVILLE,NY,12450,20,Greene,8456885290.0,42.120711,-74.27094100000001,"(42.120711, -74.270941)"
556,EARLTON FIRE DEPARTMENT,20007,PO BOX 187,EARLTON,NY,12058,20,Greene,5187316371.0,42.389034,-73.94632,"(42.389034, -73.94632)"
557,EAST DURHAM FIRE COMPANY,20008,PO BOX 92,EAST DURHAM,NY,12423,20,Greene,5186223856.0,42.30194,-74.0039,"(42.30194, -74.0039)"
558,EAST JEWETT FIRE DEPARTMENT,20009,PO BOX 105,EAST JEWETT,NY,12424,20,Greene,5185897180.0,42.236268,-74.145823,"(42.236268, -74.145823)"
559,FREEHOLD FIRE DEPARTMENT,20010,PO BOX 128,FREEHOLD,NY,12431,20,Greene,5186347746.0,42.34101,-74.02838,"(42.34101, -74.02838)"
560,GREENVILLE FIRE DEPARTMENT,20011,5124 RT 81 PO BOX 296,GREENVILLE,NY,12083,20,Greene,5189668911.0,42.43031,-74.01438,"(42.43031, -74.01438)"
561,HAINES FALLS FIRE DEPARTMENT,20012,PO BOX 233,HAINES FALLS,NY,12436,20,Greene,5185895138.0,42.197359999999996,-74.09495,"(42.19736, -74.09495)"
562,HENSONVILLE HOSE FIRE DEPARTMENT,20013,BOX 121,HENSONVILLE,NY,12439,20,Greene,5187343844.0,42.30849,-74.19244,"(42.30849, -74.19244)"
563,HUNTER FIRE DEPARTMENT,20014,17 BRIDGE ST PO BOX 181,HUNTER,NY,12442,20,Greene,5188214882.0,42.23276,-74.27003,"(42.23276, -74.27003)"
564,JEWETT FIRE DEPARTMENT,20015,PO BOX 201,JEWETT,NY,12444,20,Greene,5187344114.0,42.269197999999996,-74.303657,"(42.269198, -74.303657)"
565,KISKATOM FIRE DEPARTMENT,20016,4838 ROUTE 32,CATSKILL,NY,12414,20,Greene,5186789986.0,42.205433,-73.98350699999999,"(42.205433, -73.983507)"
566,LEEDS FIRE DEPARTMENT,20017,PO BOX 189,LEEDS,NY,12451,20,Greene,5189432918.0,42.30242,-73.95201,"(42.30242, -73.95201)"
567,LEXINGTON-WESTKILL FIRE DEPT,20018,2587 RTE 42 PO BOX 98,WESTKILL,NY,12492,20,Greene,5189899787.0,42.20928,-74.33664,"(42.20928, -74.33664)"
568,MEDWAY-GRAPEVILLE FIRE DEPT,20019,522 SODOM RD PO BOX 89,CLIMAX,NY,12087,20,Greene,5187318527.0,42.39509,-73.88342,"(42.39509, -73.88342)"
569,CORNEL HOOK & LADDER FIRE DEPT,20020,BOX 400,NEW BALTIMORE,NY,12124,20,Greene,5187568222.0,42.445640000000004,-73.78939,"(42.44564, -73.78939)"
570,OAK HILL-DURHAM FIRE DEPT,20021,PO BOX 51,OAK HILL,NY,12460,20,Greene,5182394837.0,42.405905,-74.154555,"(42.405905, -74.154555)"
571,PALENVILLE FIRE DEPARTMENT,20022,717 ROUTE 32A PO BOX 540,PALENVILLE,NY,12463,20,Greene,5186783311.0,42.173988,-74.019269,"(42.173988, -74.019269)"
572,PRATTSVILLE FIRE DEPARTMENT,20023,PO BOX 416,PRATTSVILLE,NY,12468,20,Greene,5182993288.0,42.314859999999996,-74.43290999999999,"(42.31486, -74.43291)"
573,ROUND TOP FIRE DEPARTMENT,20024,PO BOX 61,ROUND TOP,NY,12473,20,Greene,5186229509.0,42.26404,-74.03671,"(42.26404, -74.03671)"
574,TANNERSVILLE FIRE DEPARTMENT,20025,PO BOX 671,TANNERSVILLE,NY,12485,20,Greene,5185896095.0,42.1946,-74.1535,"(42.1946, -74.1535)"
575,WINDHAM HOSE FIRE DEPARTMENT,20026,PO BOX 3,WINDHAM,NY,12496,20,Greene,5187343883.0,42.33651,-74.26059000000001,"(42.33651, -74.26059)"
576,WEST ATHENS-LIMESTREET FIRE DEPT,20027,337 VOSENKILL ROAD,ATHENS,NY,12015,20,Greene,5189432347.0,42.259029999999996,-73.87549,"(42.25903, -73.87549)"
577,BLUE MOUNTAIN LAKE FIRE DEPT,21001,RT 28 MAIN ST,BLUE MOUNTAIN LAKE,NY,12812,21,Hamilton,5183527740.0,43.837990000000005,-74.42681,"(43.83799, -74.42681)"
578,HOPE FIRE DEPARTMENT,21002,HC 1 RT 30,NORTHVILLE,NY,12134,21,Hamilton,5189242562.0,43.2268,-74.17638000000001,"(43.2268, -74.17638)"
579,INDIAN LAKE FIRE DEPARTMENT,21003,MAIN STREET PO BOX 773,INDIAN LAKE,NY,12842,21,Hamilton,5186485651.0,43.755829999999996,-74.28429,"(43.75583, -74.28429)"
580,INLET FIRE DEPARTMENT,21004,PO BOX 300,INLET,NY,13360,21,Hamilton,3153576601.0,43.72586,-74.73557,"(43.72586, -74.73557)"
581,LAKE PLEASANT FIRE DEPARTMENT,21005,PO BOX 545,LAKE PLEASANT,NY,12108,21,Hamilton,5185483485.0,43.454857000000004,-74.40261,"(43.454857, -74.40261)"
582,LONG LAKE FIRE DEPARTMENT,21006,1204 RT 30 PO BOX 576,LONG LAKE,NY,12847,21,Hamilton,5186244599.0,43.905390000000004,-74.51266,"(43.90539, -74.51266)"
584,PISECO FIRE DEPARTMENT,21008,RT 8 BOX 40,LAKE PLEASANT,NY,12108,21,Hamilton,5185485700.0,43.55342,-74.43809,"(43.55342, -74.43809)"
585,RAQUETTE LAKE FIRE DEPARTMENT,21009,PO BOX 160,RAQUETTE LAKE,NY,13436,21,Hamilton,3153544471.0,43.87131,-74.55318,"(43.87131, -74.55318)"
586,SPECULATOR FIRE DEPARTMENT,21010,RTE 30 & 8 PO BOX 371,SPECULATOR,NY,12164,21,Hamilton,5185486648.0,43.559090000000005,-74.35659,"(43.55909, -74.35659)"
587,WELLS FIRE DEPARTMENT,21011,ROUTE 30 BOX 400,WELLS,NY,12190,21,Hamilton,5189243473.0,43.473440000000004,-74.27389000000001,"(43.47344, -74.27389)"
588,BIG MOOSE FIRE DEPARTMENT,22001,BIG MOOSE ROAD,EAGLE BAY,NY,13331,22,Herkimer,3153573475.0,43.848964,-74.998,"(43.848964, -74.998)"
589,CEDARVILLE FIRE DEPARTMENT,22002,960 STATE ROUTE 51,ILION,NY,13357,22,Herkimer,3158225377.0,42.930954,-75.114118,"(42.930954, -75.114118)"
590,DOLGEVILLE FIRE DEPARTMENT,22003,20 S HELMER AVENUE,DOLGEVILLE,NY,13329,22,Herkimer,3154298261.0,43.102632,-74.77331,"(43.102632, -74.77331)"
591,EAGLE BAY FIRE DEPARTMENT,22004,5516 RT 28 PO BOX 102,EAGLE BAY,NY,13331,22,Herkimer,3153573414.0,43.81793,-74.87234000000001,"(43.81793, -74.87234)"
592,EAST HERKIMER FIRE DEPARTMENT,22005,PO BOX 95,HERKIMER,NY,13350,22,Herkimer,3158661140.0,43.030341,-74.966574,"(43.030341, -74.966574)"
593,FRANKFORT FIRE DEPARTMENT,22006,158 SOUTH LITCHFIELD STREET,FRANKFORT,NY,13340,22,Herkimer,3158945621.0,43.038152000000004,-75.073291,"(43.038152, -75.073291)"
594,FRANKFORT CENTER FIRE DEPARTMENT,22007,799 CENTER ROAD,FRANKFORT,NY,13340,22,Herkimer,3157331937.0,43.068163,-75.153911,"(43.068163, -75.153911)"
595,FRANKFORT HILL FIRE DEPARTMENT,22008,2235 ALBANY ROAD,FRANKFORT,NY,13340,22,Herkimer,3155340613.0,43.03529,-75.184729,"(43.03529, -75.184729)"
596,HERKIMER FIRE DEPARTMENT,22010,125 N WASHINGTON STREET,HERKIMER,NY,13350,22,Herkimer,3158662242.0,43.027172,-74.985612,"(43.027172, -74.985612)"
597,ILION FIRE DEPARTMENT,22011,1 CENTRAL AVENUE,ILION,NY,13357,22,Herkimer,3158946048.0,43.016373,-75.034995,"(43.016373, -75.034995)"
598,LITTLE FALLS FIRE DEPARTMENT,22012,659 E MAIN STREET,LITTLE FALLS,NY,13365,22,Herkimer,3158232234.0,43.044498,-74.856208,"(43.044498, -74.856208)"
599,MIDDLEVILLE FIRE DEPARTMENT,22013,41 N MAIN ST PO BOX 536,MIDDLEVILLE,NY,13406,22,Herkimer,3158913649.0,43.13783,-74.92005,"(43.13783, -74.92005)"
600,MOHAWK FIRE DEPARTMENT,22014,28 COLUMBIA ST PO BOX 261,MOHAWK,NY,13407,22,Herkimer,3158664350.0,42.9681,-74.97035,"(42.9681, -74.97035)"
601,NEWPORT FIRE DEPARTMENT,22015,POB 522,NEWPORT,NY,13416,22,Herkimer,3158458129.0,43.181643,-75.011065,"(43.181643, -75.011065)"
602,OLD FORGE FIRE DEPARTMENT,22016,114 FULTON ST PO BOX 1170,OLD FORGE,NY,13420,22,Herkimer,3153693424.0,43.71029,-74.972219,"(43.71029, -74.972219)"
603,POLAND FIRE DEPARTMENT,22017,11 CASE STREET PO BOX 117,POLAND,NY,13431-0117,22,Herkimer,3158267141.0,43.225499,-75.063924,"(43.225499, -75.063924)"
604,SALISBURY FIRE DEPARTMENT,22018,PO BOX 65,SALISBURY CENTER,NY,13454,22,Herkimer,3154295121.0,43.16,-74.76323000000001,"(43.16, -74.76323)"
605,SCHUYLER FIRE DEPARTMENT,22019,120 NEWPORT ROAD,UTICA,NY,13502,22,Herkimer,3157322348.0,43.099759999999996,-75.14985,"(43.09976, -75.14985)"
606,VAN HORNSVILLE FIRE DEPARTMENT,22020,BOX 6,VAN HORNSVILLE,NY,13475,22,Herkimer,5189933970.0,42.888740000000006,-74.83381,"(42.88874, -74.83381)"
607,WEST WINFIELD FIRE DEPARTMENT,22021,PO BOX 158,WEST WINFIELD,NY,13491,22,Herkimer,3158226223.0,42.85264,-75.17106,"(42.85264, -75.17106)"
608,ADAMS FIRE DEPARTMENT,23001,6 N MAIN ST PO BOX 52,ADAMS,NY,13605,23,Jefferson,3152324033.0,43.809476000000004,-76.02401,"(43.809476, -76.02401)"
609,ADAMS CENTER FIRE DEPARTMENT,23002,13401 N MAIN STREET,ADAMS CENTER,NY,13606,23,Jefferson,3155835533.0,43.862577,-76.006188,"(43.862577, -76.006188)"
611,ANTWERP FIRE DEPARTMENT,23004,2 VANBUREN STREET,ANTWERP,NY,13608,23,Jefferson,3156598631.0,44.198629,-75.606946,"(44.198629, -75.606946)"
612,BELLEVILLE FIRE DEPARTMENT,23005,7981 NYS RTE 289,BELLEVILLE,NY,13611,23,Jefferson,3158465510.0,43.78768,-76.13446,"(43.78768, -76.13446)"
613,BLACK RIVER FIRE DEPARTMENT,23006,218 LERAY ST PO BOX 95,BLACK RIVER,NY,13612,23,Jefferson,3157734522.0,44.016847999999996,-75.802925,"(44.016848, -75.802925)"
614,BROWNVILLE FIRE DEPARTMENT,23007,121 BROWN BOULEVARD,BROWNVILLE,NY,13615,23,Jefferson,3157827220.0,44.002990000000004,-75.9838,"(44.00299, -75.9838)"
615,CALCIUM FIRE DEPARTMENT,23008,SANFORD RD PO BOX 161,CALCIUM,NY,13616,23,Jefferson,3157826576.0,44.02904,-75.84522,"(44.02904, -75.84522)"
616,CAPE VINCENT FIRE DEPARTMENT,23010,214 E BROADWAY ST,CAPE VINCENT,NY,13618,23,Jefferson,3156542004.0,44.128155,-76.335544,"(44.128155, -76.335544)"
617,CARTHAGE FIRE DEPARTMENT,23011,317 S WASHINGTON ST,CARTHAGE,NY,13619,23,Jefferson,3154932346.0,43.972091999999996,-75.589751,"(43.972092, -75.589751)"
618,CHAMPION FIRE DEPT (TOWN),23012,220 COUNTY RT 47,CARTHAGE,NY,13619,23,Jefferson,3154932099.0,43.979890000000005,-75.60826999999999,"(43.97989, -75.60827)"
619,CHAUMONT FIRE DEPARTMENT,23013,PO BOX 158,CHAUMONT,NY,13622,23,Jefferson,3156492410.0,44.07332,-76.1464,"(44.07332, -76.1464)"
620,CLAYTON FIRE DEPARTMENT,23014,855 GRAVES STREET,CLAYTON,NY,13624,23,Jefferson,3156865731.0,44.232287,-76.075919,"(44.232287, -76.075919)"
621,DEFERIET FIRE DEPARTMENT,23015,101 RIVERSIDE DRIVE,DEFERIET,NY,13628,23,Jefferson,3152865623.0,43.976265000000005,-75.612224,"(43.976265, -75.612224)"
622,DEPAUVILLE FIRE DEPARTMENT,23016,15231 SCHOOL STREET,DEPAUVILLE,NY,13632,23,Jefferson,3156863795.0,44.138462,-76.066251,"(44.138462, -76.066251)"
623,DEXTER FIRE DEPARTMENT,23017,PO BOX 74,DEXTER,NY,13634,23,Jefferson,3156396271.0,43.979552000000005,-76.206734,"(43.979552, -76.206734)"
624,ELLISBURG FIRE DEPARTMENT,23019,11901 ST RTE 193,ELLISBURG,NY,13636,23,Jefferson,3158465555.0,43.73747,-76.12578,"(43.73747, -76.12578)"
625,EVANS MILLS FIRE DEPARTMENT,23020,8615 LERAY STREET,EVANS MILLS,NY,13637,23,Jefferson,3156294931.0,44.07548,-75.8184,"(44.07548, -75.8184)"
626,FELTS MILLS FIRE DEPARTMENT,23021,30743 NYS ROUTE 3,FELTS MILLS,NY,13638,23,Jefferson,3157732604.0,44.018159999999995,-75.7656,"(44.01816, -75.7656)"
627,FISHERS LANDING FIRE DEPARTMENT,23022,42038 CO RTE 195,FISHERS LANDING,NY,13641,23,Jefferson,3156862924.0,44.27738,-76.00709,"(44.27738, -76.00709)"
628,GLEN PARK FIRE DEPARTMENT,23023,630 MAIN ST,GLEN PARK,NY,13601,23,Jefferson,3157825674.0,43.999812,-75.957651,"(43.999812, -75.957651)"
629,GREAT BEND FIRE DEPARTMENT,23024,32768 NYS RTE 26,GREAT BEND,NY,13643,23,Jefferson,3154932258.0,44.033809999999995,-75.71935,"(44.03381, -75.71935)"
630,HENDERSON FIRE DEPARTMENT,23025,8939 STATE RTE 178,HENDERSON,NY,13650,23,Jefferson,3159385032.0,43.845811,-76.181167,"(43.845811, -76.181167)"
631,LA FARGEVILLE FIRE DEPT,23027,20411 SUNRISE AVE POB 121,LA FARGEVILLE,NY,13656,23,Jefferson,3156582919.0,44.19396,-75.96636,"(44.19396, -75.96636)"
632,LORRAINE FIRE DEPARTMENT,23028,20876 CO RTE 189,LORRAINE,NY,13659,23,Jefferson,3152322601.0,43.75342,-75.89153,"(43.75342, -75.89153)"
633,MANNSVILLE FIRE DEPARTMENT,23029,310 S MAIN ST PO BOX 460,MANNSVILLE,NY,13661,23,Jefferson,3154657000.0,43.71825,-76.10882,"(43.71825, -76.10882)"
634,NATURAL BRIDGE FIRE DEPARTMENT,23031,27570 HIGH STREET,NATURAL BRIDGE,NY,13665,23,Jefferson,3156449898.0,44.067669,-75.495334,"(44.067669, -75.495334)"
635,NORTHPOLE FIRE DEPARTMENT,23032,22334 US RTE 11,WATERTOWN,NY,13601,23,Jefferson,3157889020.0,44.000338,-75.900468,"(44.000338, -75.900468)"
636,OXBOW FIRE DEPARTMENT,23033,37635 CO RTE 25,ANTWERP,NY,13608-4117,23,Jefferson,3152879898.0,44.286961,-75.620892,"(44.286961, -75.620892)"
637,PAMELIA FIRE DEPARTMENT,23034,25082 CO RTE 16,EVANS MILLS,NY,13736,23,Jefferson,3156295260.0,42.313320000000004,-76.19317,"(42.31332, -76.19317)"
638,PHILADELPHIA FIRE DEPARTMENT,23035,1 ANTWERP STREET,PHILADELPHIA,NY,13673,23,Jefferson,3156425781.0,44.158676,-75.705815,"(44.158676, -75.705815)"
639,PLESSIS FIRE DEPARTMENT,23036,21691 COUNTY ROUTE 3,LA FARGEVILLE,NY,13656,23,Jefferson,3154829752.0,44.28263,-75.84181,"(44.28263, -75.84181)"
640,REDWOOD FIRE DEPARTMENT,23037,43676 STINE ROAD,REDWOOD,NY,13679,23,Jefferson,3154823962.0,44.299312,-75.800588,"(44.299312, -75.800588)"
641,RODMAN FIRE DEPARTMENT,23038,21495 COUNTY RTE 69,RODMAN,NY,13682,23,Jefferson,3152322966.0,43.83952,-75.89954,"(43.83952, -75.89954)"
642,RUTLAND FIRE DEPT (TOWN),23039,28502 STATE RT 126,BLACK RIVER,NY,13612,23,Jefferson,3157884434.0,43.98885,-75.76688,"(43.98885, -75.76688)"
643,SACKETS HARBOR FIRE DEPARTMENT,23040,112 N BROAD STREET,SACKETS HARBOR,NY,13685,23,Jefferson,3156462770.0,43.94679,-76.118219,"(43.94679, -76.118219)"
644,SMITHVILLE FIRE DEPARTMENT,23041,13727 CO RTE 63,ADAMS,NY,13605,23,Jefferson,3152324160.0,43.810759999999995,-76.02339,"(43.81076, -76.02339)"
645,THERESA FIRE DEPT,23042,LOT 8 INDIAN RIVER ESTATES,THERESA,NY,13691,23,Jefferson,3157862601.0,44.214746000000005,-75.78309399999999,"(44.214746, -75.783094)"
646,THREE MILE BAY FIRE DEPARTMENT,23044,8581 NYS RTE 12E,THREE MILE BAY,NY,13693,23,Jefferson,3156492888.0,44.022729999999996,-76.24897,"(44.02273, -76.24897)"
647,WATERTOWN FIRE DEPT (TOWN),23046,22825 COUNTY RT 67,WATERTOWN,NY,13601,23,Jefferson,3157889101.0,43.9752,-75.91171,"(43.9752, -75.91171)"
648,WATERTOWN FIRE DEPT (CITY),23047,224 S MASSEY STREET,WATERTOWN,NY,13601,23,Jefferson,3157857800.0,43.973698,-75.91869399999999,"(43.973698, -75.918694)"
649,WELLESLEY-THOUSAND IS FIRE DEPT,23048,PO BOX 1125,THOUSAND ISLAND PARK,NY,13692,23,Jefferson,3154824222.0,44.28675,-76.02673,"(44.28675, -76.02673)"
650,WEST CARTHAGE FIRE DEPARTMENT,23049,61 HIGH STREET,WEST CARTHAGE,NY,13619,23,Jefferson,3154931955.0,43.970405,-75.623047,"(43.970405, -75.623047)"
652,NEW YORK CITY FIRE DEPARTMENT,24001,9 METROTECH CENTER,BROOKLYN,NY,11201-5884,31,New York,7189992117.0,40.69384,-73.9871,"(40.69384, -73.9871)"
653,BEAVER FALLS FIRE DEPARTMENT,25001,9583 MAIN STREET,BEAVER FALLS,NY,13305,25,Lewis,3153466712.0,43.88756,-75.42520999999999,"(43.88756, -75.42521)"
654,CASTORLAND FIRE DEPARTMENT,25002,MAIN STREET PO BOX 37,CASTORLAND,NY,13620,25,Lewis,3153766212.0,43.88967,-75.43975999999999,"(43.88967, -75.43976)"
655,CONSTABLEVILLE FIRE DEPARTMENT,25003,PO BOX 348,CONSTABLEVILLE,NY,13325,25,Lewis,3153972828.0,43.562213,-75.427527,"(43.562213, -75.427527)"
656,COPENHAGEN FIRE DEPARTMENT,25004,PO BOX 364,COPENHAGEN,NY,13626,25,Lewis,3156884103.0,43.895558,-75.676997,"(43.895558, -75.676997)"
657,CROGHAN FIRE DEPARTMENT,25005,PO BOX 405,CROGHAN,NY,13327,25,Lewis,3153466164.0,43.894473,-75.390569,"(43.894473, -75.390569)"
658,GLENFIELD FIRE DEPARTMENT (3-G),25006,6042 MAIN STREET,GLENFIELD,NY,13343,25,Lewis,3153762135.0,43.706855,-75.405001,"(43.706855, -75.405001)"
659,HARRISVILLE FIRE DEPARTMENT,25007,PO BOX 51,HARRISVILLE,NY,13648,25,Lewis,3155432833.0,44.152225,-75.320459,"(44.152225, -75.320459)"
660,LOWVILLE FIRE DEPARTMENT,25008,PO BOX 81,LOWVILLE,NY,13367,25,Lewis,3153766827.0,43.79166,-75.49025999999999,"(43.79166, -75.49026)"
661,LYONS FALLS FIRE DEPARTMENT,25009,PO BOX 520,LYONS FALLS,NY,13368,25,Lewis,3153488813.0,43.616694,-75.361024,"(43.616694, -75.361024)"
663,NEW BREMEN FIRE DEPARTMENT,25011,8154 STATE ROUTE 812,LOWVILLE,NY,13367,25,Lewis,3153760364.0,43.806466,-75.476343,"(43.806466, -75.476343)"
664,PORT LEYDEN FIRE DEPARTMENT,25012,PO BOX 67,PORT LEYDEN,NY,13433,25,Lewis,3153488575.0,43.583372999999995,-75.346308,"(43.583373, -75.346308)"
665,TURIN FIRE DEPARTMENT,25013,4239 NYS RT 26,TURIN,NY,13473,25,Lewis,3153484233.0,43.56693,-75.82155,"(43.56693, -75.82155)"
666,WEST LEYDEN FIRE DEPARTMENT,25014,PO BOX 205 ROUTE 26,WEST LEYDEN,NY,13489,25,Lewis,3159425421.0,43.4823,-75.56105,"(43.4823, -75.56105)"
667,AVON FIRE DEPARTMENT,26001,74 GENESEE STREET,AVON,NY,14414,26,Livingston,5852268770.0,42.910934000000005,-77.746424,"(42.910934, -77.746424)"
668,CALEDONIA FIRE DEPARTMENT,26002,442 ARMSTRONG RD PO BOX 426,MUMFORD,NY,14511,26,Livingston,7165386130.0,42.973216,-77.855372,"(42.973216, -77.855372)"
669,CONESUS FIRE DEPARTMENT,26003,PO BOX 216,CONESUS,NY,14435,26,Livingston,5853463460.0,42.725245,-77.67378599999999,"(42.725245, -77.673786)"
670,CUYLERVILLE FIRE DEPARTMENT,26005,2949 CANANDAIGUA STREET,LEICESTER,NY,14481,26,Livingston,7163823577.0,42.777105,-77.871125,"(42.777105, -77.871125)"
671,DANSVILLE FIRE DEPARTMENT,26006,PO BOX 401,DANSVILLE,NY,14437,26,Livingston,5853357770.0,42.562069,-77.69943599999999,"(42.562069, -77.699436)"
672,EAST AVON FIRE DEPARTMENT,26007,BOX 358,AVON,NY,14414,26,Livingston,7162268207.0,42.90895,-77.73008,"(42.90895, -77.73008)"
673,GENESEO FIRE DEPARTMENT,26008,PO BOX 428,GENESEO,NY,14454,26,Livingston,7162431200.0,42.794404,-77.800585,"(42.794404, -77.800585)"
674,GROVELAND FIRE DEPARTMENT,26009,7428 ROUTE 63,GROVELAND,NY,14462,26,Livingston,5852431441.0,42.66141,-77.76671,"(42.66141, -77.76671)"
675,HEMLOCK FIRE DEPARTMENT,26010,4698 MAIN STREET BOX 101,HEMLOCK,NY,14466,26,Livingston,7163672730.0,42.77233,-77.56981999999999,"(42.77233, -77.56982)"
677,LEICESTER FIRE DEPARTMENT,26012,PO BOX 144,LEICESTER,NY,14481,26,Livingston,5855336440.0,42.761390000000006,-77.91141999999999,"(42.76139, -77.91142)"
678,LIMA FIRE DEPARTMENT,26013,PO BOX 29A,LIMA,NY,14485,26,Livingston,7165821770.0,42.90367,-77.61738199999999,"(42.90367, -77.617382)"
679,LIVONIA FIRE DEPARTMENT,26014,5 MAIN STREET PO BOX 151,LIVONIA,NY,14487,26,Livingston,7163462257.0,42.82176,-77.66757,"(42.82176, -77.66757)"
680,MT MORRIS FIRE DEPARTMENT,26015,MAIN ST  PO BOX 127,MT MORRIS,NY,14510,26,Livingston,7166583130.0,42.72331,-77.87265,"(42.72331, -77.87265)"
681,NUNDA FIRE DEPARTMENT,26016,4 SO STATE ST PO BOX 551,NUNDA,NY,14517,26,Livingston,7164682323.0,42.59102026,-77.94253671,"(42.59102026, -77.94253671)"
682,YORK FIRE DEPARTMENT,26017,2667 YORK ROAD W,YORK,NY,14592,26,Livingston,7162433344.0,42.831132000000004,-77.88203299999999,"(42.831132, -77.882033)"
683,SPARTA CENTER FIRE DEPARTMENT,26018,5610 SCOTTSBURG-GROVELND RD,SCOTTSBURG,NY,14545,26,Livingston,7163356872.0,42.618031,-77.682888,"(42.618031, -77.682888)"
684,SPRINGWATER FIRE DEPARTMENT,26019,8145 SOUTH MAIN STREET,SPRINGWATER,NY,14560,26,Livingston,5856699342.0,42.629579,-77.598537,"(42.629579, -77.598537)"
685,WEST SPARTA FIRE DEPARTMENT,26023,4451 RED SCHOOL ROAD,DANSVILLE,NY,14437,26,Livingston,7163353322.0,42.618307,-77.789748,"(42.618307, -77.789748)"
686,BRIDGEPORT FIRE DEPARTMENT,27001,PO BOX 600,BRIDGEPORT,NY,13030,27,Madison,3156339048.0,43.16727,-75.94515,"(43.16727, -75.94515)"
687,BROOKFIELD FIRE DEPARTMENT,27002,MAIN ST PO BOX 99,BROOKFIELD,NY,13314,27,Madison,3158996251.0,42.811925,-75.326185,"(42.811925, -75.326185)"
688,CANASTOTA FIRE DEPARTMENT,27003,PO BOX 81,CANASTOTA,NY,13032,27,Madison,3156972771.0,43.07812,-75.753198,"(43.07812, -75.753198)"
689,CAZENOVIA FIRE DEPARTMENT,27004,121 ALBANY STREET,CAZENOVIA,NY,13035,27,Madison,3156552834.0,42.929933,-75.850825,"(42.929933, -75.850825)"
690,CHITTENANGO FIRE DEPARTMENT,27005,417 E GENESEE ST PO BOX 356,CHITTENANGO,NY,13037,27,Madison,3156876424.0,43.049786,-75.865938,"(43.049786, -75.865938)"
691,DE RUYTER FIRE DEPARTMENT,27006,1663 CORTLAND ST PO BOX 278,DE RUYTER,NY,13052,27,Madison,3153961500.0,42.71399,-75.8827,"(42.71399, -75.8827)"
692,EARLVILLE FIRE DEPARTMENT,27007,PO BOX 37,EARLVILLE,NY,13332,27,Madison,6076744926.0,42.7459,-75.54682,"(42.7459, -75.54682)"
693,EATON FIRE DEPARTMENT,27008,PO BOX 52,EATON,NY,13334,27,Madison,3156847397.0,42.850567,-75.611237,"(42.850567, -75.611237)"
694,ERIEVILLE FIRE DEPARTMENT,27009,4085 EATONBROOK ROAD,ERIEVILLE,NY,13061,27,Madison,3156627375.0,42.851365,-75.753635,"(42.851365, -75.753635)"
695,GEORGETOWN FIRE DEPARTMENT,27010,PO BOX 215,GEORGETOWN,NY,13072,27,Madison,3158374645.0,42.76538,-75.76438,"(42.76538, -75.76438)"
696,HAMILTON FIRE DEPARTMENT,27011,121 LEBANON STREET,HAMILTON,NY,13346,27,Madison,3158242460.0,42.822507,-75.55077800000001,"(42.822507, -75.550778)"
697,HUBBARDSVILLE FIRE DEPARTMENT,27012,PO BOX 847,HUBBARDSVILLE,NY,13355,27,Madison,3156912727.0,42.814890000000005,-75.42527,"(42.81489, -75.42527)"
698,LEONARDSVILLE FIRE DEPARTMENT,27013,11306 MILL ST PO BOX 185,LEONARDSVILLE,NY,13364,27,Madison,3158554466.0,42.80859,-75.25248,"(42.80859, -75.25248)"
699,LINCOLN FIRE DEPARTMENT,27014,PO BOX 60,CLOCKVILLE,NY,13043,27,Madison,3156979809.0,43.04153,-75.74476,"(43.04153, -75.74476)"
700,MADISON FIRE DEPARTMENT,27015,PO BOX 72,MADISON,NY,13402,27,Madison,3158931893.0,42.896679999999996,-75.51198000000001,"(42.89668, -75.51198)"
701,MORRISVILLE FIRE DEPARTMENT,27016,MAIN & UNION ST PO BOX 244,MORRISVILLE,NY,13408,27,Madison,3156843214.0,42.930040000000005,-75.67398,"(42.93004, -75.67398)"
702,MUNNSVILLE FIRE DEPARTMENT,27017,5210 S MAIN ST,MUNNSVILLE,NY,13409,27,Madison,3154955401.0,42.99167,-75.584,"(42.99167, -75.584)"
703,NEW WOODSTOCK FIRE DEPARTMENT,27018,PO BOX 165 STATE ROUTE 13,NEW WOODSTOCK,NY,13122,27,Madison,3156623661.0,42.83603,-75.86669,"(42.83603, -75.86669)"
704,NORTH BROOKFIELD FIRE DEPARTMENT,27019,9199 MAIN STREET,NORTH BROOKFIELD,NY,13418,27,Madison,3158612116.0,42.850587,-75.388952,"(42.850587, -75.388952)"
705,NORTH CHITTENANGO FIRE DEPT,27020,1699 FYLER RD PO BOX 180,CHITTENANGO,NY,13037,27,Madison,3156876529.0,43.05325,-75.86708,"(43.05325, -75.86708)"
706,ONEIDA FIRE DEPARTMENT,27021,109 N MAIN ST PO BOX 550,ONEIDA,NY,13421,27,Madison,3153631910.0,43.096586,-75.652851,"(43.096586, -75.652851)"
707,SMITHFIELD FIRE DEPARTMENT,27023,PO BOX 115,PETERBORO,NY,13134,27,Madison,3156843280.0,42.96727,-75.6856,"(42.96727, -75.6856)"
708,WAMPSVILLE FIRE DEPARTMENT,27024,NORTH COURT ST PO BOX 51,WAMPSVILLE,NY,13163,27,Madison,3153638171.0,43.08229,-75.70765,"(43.08229, -75.70765)"
